{
"type": "FeatureCollection",
"crs": { "type": "name", "properties": { "name": "urn:ogc:def:crs:OGC:1.3:CRS84" } },
                                                                                
"features": [
{ "type": "Feature", "properties": { "lon": 30.498693, "lat": 50.444218, "name": "ТОВ Аріані", "number": 65606, "type": "алкогольні напої", "from": "2016-06-04", "to": "2017-06-03", "address": "вул. Петлюри Симона, 3\/25", "status": "видана" }, "geometry": { "type": "Point", "coordinates": [ 30.498693, 50.444218 ] } },
{ "type": "Feature", "properties": { "lon": 30.632659, "lat": 50.485828, "name": "ТОВ Авангард Лювс", "number": 65607, "type": "пиво", "from": "2016-05-30", "to": "2017-05-29", "address": "вул. Жукова Маршала, 26", "status": "видана" }, "geometry": { "type": "Point", "coordinates": [ 30.632659, 50.485828 ] } },
{ "type": "Feature", "properties": { "lon": 30.5984527, "lat": 50.4490539, "name": "ТОВ Міністрі Пива", "number": 65609, "type": "алкогольні напої", "from": "2016-06-06", "to": "2017-06-05", "address": "вул. Євгена Сверстюка, 11 А, приміщення 703", "status": "видана" }, "geometry": { "type": "Point", "coordinates": [ 30.5984527, 50.4490539 ] } },
{ "type": "Feature", "properties": { "lon": 30.517881, "lat": 50.433581, "name": "ТОВ Централ Фестіваль", "number": 65610, "type": "пиво", "from": "2016-06-04", "to": "2017-06-03", "address": "вул. Велика Васильківська, 53-55", "status": "видана" }, "geometry": { "type": "Point", "coordinates": [ 30.517881, 50.433581 ] } },
{ "type": "Feature", "properties": { "lon": 30.469866, "lat": 50.360656, "name": "ТОВ Фора", "number": 65611, "type": "алкогольні напої", "from": "2016-06-10", "to": "2017-06-09", "address": "вул. Заболотного Академіка, 128-а", "status": "видана" }, "geometry": { "type": "Point", "coordinates": [ 30.469866, 50.360656 ] } },
{ "type": "Feature", "properties": { "lon": 30.474672, "lat": 50.418649, "name": "ТОВ Трактир", "number": 65613, "type": "алкогольні напої", "from": "2016-06-08", "to": "2017-06-07", "address": "просп. Червонозоряний, 48", "status": "видана" }, "geometry": { "type": "Point", "coordinates": [ 30.474672, 50.418649 ] } },
{ "type": "Feature", "properties": { "lon": 30.639837, "lat": 50.408139, "name": "ФОП Крюков Володимир Володимирович", "number": 65614, "type": "алкогольні напої", "from": "2016-06-09", "to": "2017-06-08", "address": "вул. Драгоманова, 19", "status": "видана" }, "geometry": { "type": "Point", "coordinates": [ 30.639837, 50.408139 ] } },
{ "type": "Feature", "properties": { "lon": 30.663139, "lat": 50.470362, "name": "ФОП Ткаченко Влада Геннадіївна", "number": 65616, "type": "алкогольні напої", "from": "2016-06-06", "to": "2017-06-05", "address": "просп. Броварський, 5З", "status": "видана" }, "geometry": { "type": "Point", "coordinates": [ 30.663139, 50.470362 ] } },
{ "type": "Feature", "properties": { "lon": 30.581266, "lat": 50.493301, "name": "ФОП Горовий Олександр Ігорович", "number": 65617, "type": "алкогольні напої", "from": "2016-07-03", "to": "2017-07-02", "address": "просп. Генерала Ватутіна, 10-а", "status": "видана" }, "geometry": { "type": "Point", "coordinates": [ 30.581266, 50.493301 ] } },
{ "type": "Feature", "properties": { "lon": 30.50349, "lat": 50.524355, "name": "ТОВ Табакеро", "number": 65618, "type": "алкогольні напої", "from": "2016-06-03", "to": "2017-06-02", "address": "вул. Героїв Дніпра, 49", "status": "видана" }, "geometry": { "type": "Point", "coordinates": [ 30.50349, 50.524355 ] } },
{ "type": "Feature", "properties": { "lon": 30.604443, "lat": 50.423367, "name": "ТОВ Світоч", "number": 65619, "type": "алкогольні напої", "from": "2016-06-11", "to": "2017-06-10", "address": "вул. Шумського, 3", "status": "видана" }, "geometry": { "type": "Point", "coordinates": [ 30.604443, 50.423367 ] } },
{ "type": "Feature", "properties": { "lon": 30.5107986, "lat": 50.4004477, "name": "ТОВ Ділан", "number": 65620, "type": "алкогольні напої", "from": "2016-06-13", "to": "2017-06-12", "address": "просп. Голосіївський, 61", "status": "видана" }, "geometry": { "type": "Point", "coordinates": [ 30.5107986, 50.4004477 ] } },
{ "type": "Feature", "properties": { "lon": 30.5112731, "lat": 50.4400917, "name": "ТОВ Ігма 2016", "number": 65621, "type": "алкогольні напої", "from": "2016-06-05", "to": "2017-06-04", "address": "Толстого Льва\/вул. Володимирська, 11\/61", "status": "видана" }, "geometry": { "type": "Point", "coordinates": [ 30.5112731, 50.4400917 ] } },
{ "type": "Feature", "properties": { "lon": 30.408538, "lat": 50.408306, "name": "ПП Укрінтерфуд Псв", "number": 65622, "type": "пиво", "from": "2016-07-10", "to": "2017-07-09", "address": "вул. Симиренка, 25", "status": "видана" }, "geometry": { "type": "Point", "coordinates": [ 30.408538, 50.408306 ] } },
{ "type": "Feature", "properties": { "lon": 30.642334, "lat": 50.416365, "name": "ТОВ Новая Земля", "number": 65623, "type": "алкогольні напої", "from": "2016-06-13", "to": "2017-06-12", "address": "вул. Ревуцького, 4", "status": "видана" }, "geometry": { "type": "Point", "coordinates": [ 30.642334, 50.416365 ] } },
{ "type": "Feature", "properties": { "lon": 30.489351, "lat": 50.476044, "name": "ТОВ Вомб", "number": 65624, "type": "алкогольні напої", "from": "2016-06-10", "to": "2017-06-09", "address": "вул. Кирилівська, 82", "status": "видана" }, "geometry": { "type": "Point", "coordinates": [ 30.489351, 50.476044 ] } },
{ "type": "Feature", "properties": { "lon": 30.520998, "lat": 50.497834, "name": "ТОВ Італія", "number": 65625, "type": "алкогольні напої", "from": "2016-06-12", "to": "2017-06-11", "address": "Оболонська набережна, 15 корпус 4", "status": "видана" }, "geometry": { "type": "Point", "coordinates": [ 30.520998, 50.497834 ] } },
{ "type": "Feature", "properties": { "lon": 30.592064, "lat": 50.44198, "name": "ФОП Дмітрієва Катерина Петрівна", "number": 65626, "type": "алкогольні напої", "from": "2016-06-06", "to": "2017-06-05", "address": "вул. Русанівська набережна, 12", "status": "видана" }, "geometry": { "type": "Point", "coordinates": [ 30.592064, 50.44198 ] } },
{ "type": "Feature", "properties": { "lon": 30.518941, "lat": 50.411865, "name": "ТОВ Манго-Груп", "number": 65628, "type": "алкогольні напої", "from": "2016-02-17", "to": "2017-02-16", "address": "вул. Миколи Грінченко, 18-б,", "status": "видана" }, "geometry": { "type": "Point", "coordinates": [ 30.518941, 50.411865 ] } },
{ "type": "Feature", "properties": { "lon": 30.583288, "lat": 50.491576, "name": "ФОП Мельниченко Людмила Миколаївна", "number": 65629, "type": "пиво", "from": "2016-06-06", "to": "2017-06-05", "address": "вул. Райдужна, 8", "status": "видана" }, "geometry": { "type": "Point", "coordinates": [ 30.583288, 50.491576 ] } },
{ "type": "Feature", "properties": { "lon": 30.545172, "lat": 50.343184, "name": "ТОВ Українська Харчова Компанія", "number": 65630, "type": "алкогольні напої", "from": "2016-07-01", "to": "2017-06-30", "address": "вул. Академіка Заболотного, 37", "status": "видана" }, "geometry": { "type": "Point", "coordinates": [ 30.545172, 50.343184 ] } },
{ "type": "Feature", "properties": { "lon": 30.421007, "lat": 50.445038, "name": "ФОП Намазов Єтібар Магомед", "number": 65632, "type": "алкогольні напої", "from": "2016-06-20", "to": "2017-06-19", "address": "вул. Василенка, 6", "status": "видана" }, "geometry": { "type": "Point", "coordinates": [ 30.421007, 50.445038 ] } },
{ "type": "Feature", "properties": { "lon": 30.491372, "lat": 50.448227, "name": "ПП Декор-клаб", "number": 65634, "type": "алкогольні напої", "from": "2016-06-28", "to": "2017-06-27", "address": "вул. Золотоустівська, 2\/4", "status": "видана" }, "geometry": { "type": "Point", "coordinates": [ 30.491372, 50.448227 ] } },
{ "type": "Feature", "properties": { "lon": 30.62753, "lat": 50.532103, "name": "ФОП Єрьоменко Володимир Миколайович", "number": 65637, "type": "алкогольні напої", "from": "2016-06-07", "to": "2017-06-06", "address": "вул. Закревського, 97 А", "status": "видана" }, "geometry": { "type": "Point", "coordinates": [ 30.62753, 50.532103 ] } },
{ "type": "Feature", "properties": { "lon": 30.651353, "lat": 50.414373, "name": "ФОП Калабішка Юлія Сергіївна", "number": 65640, "type": "алкогольні напої", "from": "2016-06-01", "to": "2017-05-31", "address": "вул. Архітектора Вербицького, 1", "status": "видана" }, "geometry": { "type": "Point", "coordinates": [ 30.651353, 50.414373 ] } },
{ "type": "Feature", "properties": { "lon": 30.458709, "lat": 50.422414, "name": "ДП МОУ Центральний Проектний Інститут", "number": 65642, "type": "алкогольні напої", "from": "2016-06-07", "to": "2017-06-06", "address": "вул. Народного Ополчення 5-а", "status": "видана" }, "geometry": { "type": "Point", "coordinates": [ 30.458709, 50.422414 ] } },
{ "type": "Feature", "properties": { "lon": 30.398828, "lat": 50.459049, "name": "ТОВ Гриліца", "number": 65643, "type": "алкогольні напої", "from": "2016-06-12", "to": "2017-06-11", "address": "просп. Перемоги, 94\/1", "status": "видана" }, "geometry": { "type": "Point", "coordinates": [ 30.398828, 50.459049 ] } },
{ "type": "Feature", "properties": { "lon": 30.500966, "lat": 50.500893, "name": "ПП Арабіка", "number": 65644, "type": "алкогольні напої", "from": "2016-06-04", "to": "2017-06-03", "address": "вул. Маршала Малиновського, 24\/10 А", "status": "видана" }, "geometry": { "type": "Point", "coordinates": [ 30.500966, 50.500893 ] } },
{ "type": "Feature", "properties": { "lon": 30.459841, "lat": 50.438624, "name": "ТОВ Кінопроект", "number": 65645, "type": "алкогольні напої", "from": "2016-06-27", "to": "2017-06-26", "address": "вул. Іскрівська, 18", "status": "видана" }, "geometry": { "type": "Point", "coordinates": [ 30.459841, 50.438624 ] } },
{ "type": "Feature", "properties": { "lon": 30.498415, "lat": 50.508971, "name": "ТОВ Українська Харчова Компанія", "number": 65646, "type": "алкогольні напої", "from": "2016-07-01", "to": "2017-06-30", "address": "просп. Оболонський, 1-б", "status": "видана" }, "geometry": { "type": "Point", "coordinates": [ 30.498415, 50.508971 ] } },
{ "type": "Feature", "properties": { "lon": 30.522535, "lat": 50.412192, "name": "ТОВ Українська Харчова Компанія", "number": 65647, "type": "алкогольні напої", "from": "2016-07-01", "to": "2017-06-30", "address": "вул. Антоновича, 176", "status": "видана" }, "geometry": { "type": "Point", "coordinates": [ 30.522535, 50.412192 ] } },
{ "type": "Feature", "properties": { "lon": 30.516273, "lat": 50.40261, "name": "ПП Нельга", "number": 65648, "type": "алкогольні напої", "from": "2016-07-01", "to": "2017-06-30", "address": "Голосіївський просп., 17", "status": "видана" }, "geometry": { "type": "Point", "coordinates": [ 30.516273, 50.40261 ] } },
{ "type": "Feature", "properties": { "lon": 30.543627, "lat": 50.372453, "name": "ТОВ Авекс", "number": 65650, "type": "алкогольні напої", "from": "2016-07-19", "to": "2017-07-18", "address": "просп. Науки, 90", "status": "видана" }, "geometry": { "type": "Point", "coordinates": [ 30.543627, 50.372453 ] } },
{ "type": "Feature", "properties": { "lon": 30.639585, "lat": 50.426736, "name": "ФОП Ступник Алла Андріївна", "number": 65653, "type": "алкогольні напої", "from": "2016-06-07", "to": "2017-06-06", "address": "вул. Харківське шосе, 21", "status": "видана" }, "geometry": { "type": "Point", "coordinates": [ 30.639585, 50.426736 ] } },
{ "type": "Feature", "properties": { "lon": 30.618061, "lat": 50.505786, "name": "ФОП Горбач Сергій Володимирович", "number": 65656, "type": "алкогольні напої", "from": "2016-06-12", "to": "2017-06-11", "address": "вул. М.Закревського, 22", "status": "видана" }, "geometry": { "type": "Point", "coordinates": [ 30.618061, 50.505786 ] } },
{ "type": "Feature", "properties": { "lon": 30.534006, "lat": 50.438045, "name": "ТОВ Бар Тайм Кв", "number": 65657, "type": "алкогольні напої", "from": "2016-07-06", "to": "2017-07-05", "address": "вул. Мечникова, 9", "status": "видана" }, "geometry": { "type": "Point", "coordinates": [ 30.534006, 50.438045 ] } },
{ "type": "Feature", "properties": { "lon": 30.607246, "lat": 50.508553, "name": "ТОВ Фоззі-Фуд", "number": 65658, "type": "алкогольні напої", "from": "2016-06-08", "to": "2017-06-07", "address": "просп. Маяковського Володимира, 43\/2", "status": "видана" }, "geometry": { "type": "Point", "coordinates": [ 30.607246, 50.508553 ] } },
{ "type": "Feature", "properties": { "lon": 30.592133, "lat": 50.290591, "name": "ПП Смак Люкс", "number": 65659, "type": "алкогольні напої", "from": "2016-06-07", "to": "2017-06-06", "address": "Конча Заспа, Столичне шосе 26 км база відпочинку Поліграфіст", "status": "видана" }, "geometry": { "type": "Point", "coordinates": [ 30.592133, 50.290591 ] } },
{ "type": "Feature", "properties": { "lon": 30.6514874, "lat": 50.4660114, "name": "ФОП Саргсян Тевос Жораєвич", "number": 65661, "type": "алкогольні напої", "from": "2016-06-08", "to": "2017-06-07", "address": "Броварський просп., 8", "status": "видана" }, "geometry": { "type": "Point", "coordinates": [ 30.6514874, 50.4660114 ] } },
{ "type": "Feature", "properties": { "lon": 30.406598, "lat": 50.495003, "name": "ФОП Петраков Сергій Віталійович", "number": 65664, "type": "алкогольні напої", "from": "2016-06-07", "to": "2017-06-06", "address": "вул. Маршала Гречко, 26", "status": "видана" }, "geometry": { "type": "Point", "coordinates": [ 30.406598, 50.495003 ] } },
{ "type": "Feature", "properties": { "lon": 30.433844, "lat": 50.509836, "name": "ФОП Петраков Сергій Віталійович", "number": 65665, "type": "алкогольні напої", "from": "2016-06-07", "to": "2017-06-06", "address": "вул. Межова, 23", "status": "видана" }, "geometry": { "type": "Point", "coordinates": [ 30.433844, 50.509836 ] } },
{ "type": "Feature", "properties": { "lon": 30.637231, "lat": 50.414207, "name": "ФОП Тараненко Тетяна Семенівна", "number": 65666, "type": "алкогольні напої", "from": "2016-06-15", "to": "2017-06-14", "address": "вул. Драгоманова, 9 - Ж", "status": "видана" }, "geometry": { "type": "Point", "coordinates": [ 30.637231, 50.414207 ] } },
{ "type": "Feature", "properties": { "lon": 30.511889, "lat": 50.466532, "name": "ФОП Михайлов Віктор Петрович", "number": 65667, "type": "алкогольні напої", "from": "2016-06-10", "to": "2017-06-09", "address": "вул. Костянтинівська, 17", "status": "видана" }, "geometry": { "type": "Point", "coordinates": [ 30.511889, 50.466532 ] } },
{ "type": "Feature", "properties": { "lon": 30.4733089, "lat": 50.4720838, "name": "ФОП Бабаян Меланія Хоренівна", "number": 65670, "type": "алкогольні напої", "from": "2016-07-30", "to": "2017-07-29", "address": "вул. Багговутівська, на розі з вул. Овруцькою", "status": "видана" }, "geometry": { "type": "Point", "coordinates": [ 30.4733089, 50.4720838 ] } },
{ "type": "Feature", "properties": { "lon": 30.4785547, "lat": 50.4746792, "name": "ФОП Бабаян Меланія Хоренівна", "number": 65672, "type": "алкогольні напої", "from": "2016-07-30", "to": "2017-07-29", "address": "вул. Нагірна на розі з Смородинським Узвозом", "status": "видана" }, "geometry": { "type": "Point", "coordinates": [ 30.4785547, 50.4746792 ] } },
{ "type": "Feature", "properties": { "lon": 30.491641, "lat": 50.440603, "name": "ФОП Герасименко Валентина Анатоліївна", "number": 65673, "type": "пиво", "from": "2016-07-01", "to": "2017-06-30", "address": "вул. Вокзальна, 1", "status": "видана" }, "geometry": { "type": "Point", "coordinates": [ 30.491641, 50.440603 ] } },
{ "type": "Feature", "properties": { "lon": 30.547667, "lat": 50.4162874, "name": "ТОВ Євро Гарант Буд", "number": 65674, "type": "алкогольні напої", "from": "2016-06-10", "to": "2017-06-09", "address": "вул. Кіквідзе, 5, нежитлове приміщення, 2 А", "status": "видана" }, "geometry": { "type": "Point", "coordinates": [ 30.547667, 50.4162874 ] } },
{ "type": "Feature", "properties": { "lon": 30.337347, "lat": 50.463958, "name": "ФОП Цвітоха Світлана Віталіївна", "number": 65675, "type": "алкогольні напої", "from": "2016-06-09", "to": "2017-06-08", "address": "вул. Павленко, 12", "status": "видана" }, "geometry": { "type": "Point", "coordinates": [ 30.337347, 50.463958 ] } },
{ "type": "Feature", "properties": { "lon": 30.610551, "lat": 50.4071, "name": "ТОВ Новус Україна", "number": 65677, "type": "алкогольні напої", "from": "2016-06-27", "to": "2017-06-26", "address": "вул. Дніпровська набережна, 17 А", "status": "видана" }, "geometry": { "type": "Point", "coordinates": [ 30.610551, 50.4071 ] } },
{ "type": "Feature", "properties": { "lon": 30.613435, "lat": 50.513617, "name": "ФОП Кумановська Ольга Едуардівна", "number": 65678, "type": "алкогольні напої", "from": "2016-06-26", "to": "2017-06-25", "address": "просп. Маяковського 63\/12 Д", "status": "видана" }, "geometry": { "type": "Point", "coordinates": [ 30.613435, 50.513617 ] } },
{ "type": "Feature", "properties": { "lon": 30.63442, "lat": 50.431768, "name": "ТОВ Вабілон", "number": 65679, "type": "алкогольні напої", "from": "2016-06-09", "to": "2017-06-08", "address": "Харківське шосе, 19", "status": "видана" }, "geometry": { "type": "Point", "coordinates": [ 30.63442, 50.431768 ] } },
{ "type": "Feature", "properties": { "lon": 30.440878, "lat": 50.503609, "name": "ФОП Петраков Сергій Віталійович", "number": 65680, "type": "алкогольні напої", "from": "2016-06-07", "to": "2017-06-06", "address": "просп. Правди, 19 А", "status": "видана" }, "geometry": { "type": "Point", "coordinates": [ 30.440878, 50.503609 ] } },
{ "type": "Feature", "properties": { "lon": 30.431616, "lat": 50.511887, "name": "ФОП Петраков Сергій Віталійович", "number": 65683, "type": "алкогольні напої", "from": "2016-06-07", "to": "2017-06-06", "address": "вул. Світлицького, 23", "status": "видана" }, "geometry": { "type": "Point", "coordinates": [ 30.431616, 50.511887 ] } },
{ "type": "Feature", "properties": { "lon": 30.452169, "lat": 50.522019, "name": "ТОВ Оляша", "number": 65686, "type": "алкогольні напої", "from": "2016-02-19", "to": "2017-02-18", "address": "просп. Мінський 2\/2-а", "status": "видана" }, "geometry": { "type": "Point", "coordinates": [ 30.452169, 50.522019 ] } },
{ "type": "Feature", "properties": { "lon": 30.3550833, "lat": 50.4647418, "name": "ФОП Андрущенко Марина Валентинівна", "number": 65687, "type": "пиво", "from": "2016-02-19", "to": "2017-02-18", "address": "просп. Палладіна", "status": "видана" }, "geometry": { "type": "Point", "coordinates": [ 30.3550833, 50.4647418 ] } },
{ "type": "Feature", "properties": { "lon": 30.49766, "lat": 50.51435, "name": "ФОП Дондуа Давит", "number": 65689, "type": "пиво", "from": "2016-02-19", "to": "2017-02-18", "address": "просп. Оболонський 21", "status": "видана" }, "geometry": { "type": "Point", "coordinates": [ 30.49766, 50.51435 ] } },
{ "type": "Feature", "properties": { "lon": 30.495459, "lat": 50.513491, "name": "ФОП Дондуа Давит", "number": 65691, "type": "пиво", "from": "2016-02-19", "to": "2017-02-18", "address": "вул. Тимошенка, 21", "status": "видана" }, "geometry": { "type": "Point", "coordinates": [ 30.495459, 50.513491 ] } },
{ "type": "Feature", "properties": { "lon": 30.515492, "lat": 50.459445, "name": "ТОВ Воздвиженський", "number": 65692, "type": "алкогольні напої", "from": "2016-02-24", "to": "2017-02-23", "address": "вул. Воздвиженська, 60-а, б", "status": "видана" }, "geometry": { "type": "Point", "coordinates": [ 30.515492, 50.459445 ] } },
{ "type": "Feature", "properties": { "lon": 30.515492, "lat": 50.459445, "name": "ТОВ Воздвиженський", "number": 65693, "type": "алкогольні напої", "from": "2016-02-24", "to": "2017-02-23", "address": "вул. Воздвиженська, 60-а, б", "status": "видана" }, "geometry": { "type": "Point", "coordinates": [ 30.515492, 50.459445 ] } },
{ "type": "Feature", "properties": { "lon": 30.410344, "lat": 50.472495, "name": "ТОВ Вишня", "number": 65694, "type": "алкогольні напої", "from": "2016-03-06", "to": "2017-03-05", "address": "вул. Салютна, 21", "status": "видана" }, "geometry": { "type": "Point", "coordinates": [ 30.410344, 50.472495 ] } },
{ "type": "Feature", "properties": { "lon": 30.4717824, "lat": 50.4718402, "name": "ТОВ Інді-маркет", "number": 65697, "type": "алкогольні напої", "from": "2016-03-02", "to": "2017-03-01", "address": "вул. Багговутівська на розі з вул. Пугачова", "status": "видана" }, "geometry": { "type": "Point", "coordinates": [ 30.4717824, 50.4718402 ] } },
{ "type": "Feature", "properties": { "lon": 30.659617, "lat": 50.422541, "name": "ФОП Дубська Світлана Іванівна", "number": 65699, "type": "алкогольні напої", "from": "2016-03-10", "to": "2017-03-09", "address": "вул. Севастопольська, 24", "status": "видана" }, "geometry": { "type": "Point", "coordinates": [ 30.659617, 50.422541 ] } },
{ "type": "Feature", "properties": { "lon": 30.491305, "lat": 50.4495224, "name": "ПП Хан Ганг", "number": 65700, "type": "алкогольні напої", "from": "2016-03-01", "to": "2017-02-28", "address": "вул. Тургенівська, 15", "status": "видана" }, "geometry": { "type": "Point", "coordinates": [ 30.491305, 50.4495224 ] } },
{ "type": "Feature", "properties": { "lon": 30.66154, "lat": 50.41136, "name": "ФОП Супрун Сергій Михайлович", "number": 65702, "type": "алкогольні напої", "from": "2016-03-10", "to": "2017-03-09", "address": "вул. Харківське шосе, 174 Б", "status": "видана" }, "geometry": { "type": "Point", "coordinates": [ 30.66154, 50.41136 ] } },
{ "type": "Feature", "properties": { "lon": 30.646852, "lat": 50.408851, "name": "ТОВ Паб Нік", "number": 65703, "type": "алкогольні напої", "from": "2016-02-27", "to": "2017-02-26", "address": "вул. Ревуцького, 26", "status": "видана" }, "geometry": { "type": "Point", "coordinates": [ 30.646852, 50.408851 ] } },
{ "type": "Feature", "properties": { "lon": 30.524673, "lat": 50.440816, "name": "ФОП Лосєва Тетяна Володимирівна", "number": 65704, "type": "алкогольні напої", "from": "2016-03-01", "to": "2017-02-28", "address": "вул. Кропивницького, 12", "status": "видана" }, "geometry": { "type": "Point", "coordinates": [ 30.524673, 50.440816 ] } },
{ "type": "Feature", "properties": { "lon": 30.49095, "lat": 50.44034, "name": "ФОП Логвиненко Ольга Станіславівна", "number": 65705, "type": "алкогольні напої", "from": "2016-03-25", "to": "2017-03-24", "address": "Вокзальна площа №2", "status": "видана" }, "geometry": { "type": "Point", "coordinates": [ 30.49095, 50.44034 ] } },
{ "type": "Feature", "properties": { "lon": 30.628569, "lat": 50.3956834, "name": "ТОВ Арт Фуд 2015", "number": 65706, "type": "алкогольні напої", "from": "2016-02-29", "to": "2017-02-28", "address": "вул. Михайла Гришка 6-а", "status": "видана" }, "geometry": { "type": "Point", "coordinates": [ 30.628569, 50.3956834 ] } },
{ "type": "Feature", "properties": { "lon": 30.442027, "lat": 50.503815, "name": "ФОП Баранчук Микола Васильович", "number": 65708, "type": "алкогольні напої", "from": "2016-03-01", "to": "2017-02-28", "address": "вул. Наталії Ужвій, 1", "status": "видана" }, "geometry": { "type": "Point", "coordinates": [ 30.442027, 50.503815 ] } },
{ "type": "Feature", "properties": { "lon": 30.49271, "lat": 50.444636, "name": "ТОВ Єгер", "number": 65709, "type": "алкогольні напої", "from": "2016-03-07", "to": "2017-03-06", "address": "вул. Жилянська, 107", "status": "видана" }, "geometry": { "type": "Point", "coordinates": [ 30.49271, 50.444636 ] } },
{ "type": "Feature", "properties": { "lon": 30.529164, "lat": 50.400641, "name": "ФОП Світлична Ольга Альбертівна", "number": 65710, "type": "алкогольні напої", "from": "2016-03-16", "to": "2017-03-15", "address": "просп. Науки, 11-а", "status": "видана" }, "geometry": { "type": "Point", "coordinates": [ 30.529164, 50.400641 ] } },
{ "type": "Feature", "properties": { "lon": 30.532371, "lat": 50.441355, "name": "ТОВ Сотбуд", "number": 65711, "type": "алкогольні напої", "from": "2016-03-09", "to": "2017-03-08", "address": "вул. Богомольця, 7\/14", "status": "видана" }, "geometry": { "type": "Point", "coordinates": [ 30.532371, 50.441355 ] } },
{ "type": "Feature", "properties": { "lon": 30.599116, "lat": 50.470087, "name": "ФОП Уваренко Лідія Михайлівна", "number": 65713, "type": "алкогольні напої", "from": "2016-03-04", "to": "2017-03-03", "address": "б-р Перова 10", "status": "видана" }, "geometry": { "type": "Point", "coordinates": [ 30.599116, 50.470087 ] } },
{ "type": "Feature", "properties": { "lon": 30.384562, "lat": 50.424612, "name": "ФОП Волевач Наталія Михайлівна", "number": 65715, "type": "алкогольні напої", "from": "2016-03-12", "to": "2017-03-11", "address": "вул. Картвелішвілі, 7", "status": "видана" }, "geometry": { "type": "Point", "coordinates": [ 30.384562, 50.424612 ] } },
{ "type": "Feature", "properties": { "lon": 30.603212, "lat": 50.484275, "name": "ТОВ АТБ-Маркет", "number": 65717, "type": "алкогольні напої", "from": "2016-03-25", "to": "2017-03-24", "address": "вул. Курнатовського, 11", "status": "видана" }, "geometry": { "type": "Point", "coordinates": [ 30.603212, 50.484275 ] } },
{ "type": "Feature", "properties": { "lon": 30.47425, "lat": 50.466217, "name": "ТОВ Телерадіокомпанія Алга", "number": 65721, "type": "алкогольні напої", "from": "2016-02-29", "to": "2017-02-28", "address": "вул. Мельникова, 61", "status": "видана" }, "geometry": { "type": "Point", "coordinates": [ 30.47425, 50.466217 ] } },
{ "type": "Feature", "properties": { "lon": 30.519444, "lat": 50.438957, "name": "ТОВ Тач Кафе", "number": 65722, "type": "алкогольні напої", "from": "2016-02-23", "to": "2017-02-22", "address": "вул. Шота Руставелі, 16", "status": "видана" }, "geometry": { "type": "Point", "coordinates": [ 30.519444, 50.438957 ] } },
{ "type": "Feature", "properties": { "lon": 30.656572, "lat": 50.429042, "name": "ТОВ Орхком", "number": 65725, "type": "алкогольні напої", "from": "2016-05-31", "to": "2017-05-30", "address": "вул. Севастопольська, 5", "status": "видана" }, "geometry": { "type": "Point", "coordinates": [ 30.656572, 50.429042 ] } },
{ "type": "Feature", "properties": { "lon": 30.632434, "lat": 50.392631, "name": "ФОП Любиченко Ганна Федорівна", "number": 65726, "type": "пиво", "from": "2016-06-01", "to": "2017-05-31", "address": "просп. Петра Григоренка, 38 А", "status": "видана" }, "geometry": { "type": "Point", "coordinates": [ 30.632434, 50.392631 ] } },
{ "type": "Feature", "properties": { "lon": 30.514243, "lat": 50.46573, "name": "ТОВ Мандарин", "number": 65727, "type": "алкогольні напої", "from": "2016-03-01", "to": "2017-02-28", "address": "вул. Хорива 15 \/8", "status": "видана" }, "geometry": { "type": "Point", "coordinates": [ 30.514243, 50.46573 ] } },
{ "type": "Feature", "properties": { "lon": 30.521624, "lat": 50.4358254, "name": "ТОВ Готельний Комплекс Русь", "number": 65728, "type": "алкогольні напої", "from": "2016-04-01", "to": "2017-03-31", "address": "вул. Госпітальна, 4", "status": "видана" }, "geometry": { "type": "Point", "coordinates": [ 30.521624, 50.4358254 ] } },
{ "type": "Feature", "properties": { "lon": 30.521624, "lat": 50.4358254, "name": "ТОВ Готельний Комплекс Русь", "number": 65729, "type": "алкогольні напої", "from": "2016-04-01", "to": "2017-03-31", "address": "вул. Госпітальна, 4", "status": "видана" }, "geometry": { "type": "Point", "coordinates": [ 30.521624, 50.4358254 ] } },
{ "type": "Feature", "properties": { "lon": 30.521624, "lat": 50.4358254, "name": "ТОВ Готельний Комплекс Русь", "number": 65730, "type": "алкогольні напої", "from": "2016-04-01", "to": "2017-03-31", "address": "вул. Госпітальна, 4", "status": "видана" }, "geometry": { "type": "Point", "coordinates": [ 30.521624, 50.4358254 ] } },
{ "type": "Feature", "properties": { "lon": 30.477727, "lat": 50.390213, "name": "ТОВ Кошик", "number": 65731, "type": "алкогольні напої", "from": "2016-04-20", "to": "2017-04-19", "address": "вул. Михайла Максимовича, 3", "status": "видана" }, "geometry": { "type": "Point", "coordinates": [ 30.477727, 50.390213 ] } },
{ "type": "Feature", "properties": { "lon": 30.638229, "lat": 50.417209, "name": "ФОП Ільєнко Сергій Станіславович", "number": 65733, "type": "алкогольні напої", "from": "2016-06-09", "to": "2017-06-08", "address": "вул. Драгоманова, 3 Б", "status": "видана" }, "geometry": { "type": "Point", "coordinates": [ 30.638229, 50.417209 ] } },
{ "type": "Feature", "properties": { "lon": 30.3495315, "lat": 50.4639809, "name": "ТОВ Радія", "number": 65735, "type": "алкогольні напої", "from": "2016-06-22", "to": "2017-06-21", "address": "примикання вул. Командарма Уборевича та Академіка Вернадського до просп. Академіка Палладіна", "status": "видана" }, "geometry": { "type": "Point", "coordinates": [ 30.3495315, 50.4639809 ] } },
{ "type": "Feature", "properties": { "lon": 30.412356, "lat": 50.512207, "name": "ФОП Максумова Емма Абдужелилівна", "number": 65737, "type": "пиво", "from": "2016-06-20", "to": "2017-06-19", "address": "просп. Гонгадзе, 20", "status": "видана" }, "geometry": { "type": "Point", "coordinates": [ 30.412356, 50.512207 ] } },
{ "type": "Feature", "properties": { "lon": 30.459069, "lat": 50.427028, "name": "ТОВ Фоззі-Фуд", "number": 65739, "type": "алкогольні напої", "from": "2016-06-13", "to": "2017-06-12", "address": "б-р Чоколівський, 6", "status": "видана" }, "geometry": { "type": "Point", "coordinates": [ 30.459069, 50.427028 ] } },
{ "type": "Feature", "properties": { "lon": 30.40623, "lat": 50.479758, "name": "ФОП Злидниченко Олександр Валентинович", "number": 65741, "type": "пиво", "from": "2016-07-01", "to": "2017-06-30", "address": "вул. Щербакова, 72", "status": "видана" }, "geometry": { "type": "Point", "coordinates": [ 30.40623, 50.479758 ] } },
{ "type": "Feature", "properties": { "lon": 30.598972, "lat": 50.514258, "name": "ФОП Кретюк Володимир Анатолійович", "number": 65742, "type": "алкогольні напої", "from": "2016-07-01", "to": "2017-06-30", "address": "вул. Бальзака, 55", "status": "видана" }, "geometry": { "type": "Point", "coordinates": [ 30.598972, 50.514258 ] } },
{ "type": "Feature", "properties": { "lon": 30.629919, "lat": 50.404149, "name": "ТОВ Княжна", "number": 65743, "type": "алкогольні напої", "from": "2016-06-14", "to": "2017-06-13", "address": "вул. Княжий Затон, 2\/30", "status": "видана" }, "geometry": { "type": "Point", "coordinates": [ 30.629919, 50.404149 ] } },
{ "type": "Feature", "properties": { "lon": 30.517234, "lat": 50.448715, "name": "ТОВ Авторитет-2012", "number": 65744, "type": "алкогольні напої", "from": "2016-06-26", "to": "2017-06-25", "address": "вул. Прорізна, 16", "status": "видана" }, "geometry": { "type": "Point", "coordinates": [ 30.517234, 50.448715 ] } },
{ "type": "Feature", "properties": { "lon": 30.548181, "lat": 50.442439, "name": "ТОВ Авторитет-2012", "number": 65746, "type": "алкогольні напої", "from": "2016-06-28", "to": "2017-06-27", "address": "вул. І.Мазепи, 7-ж", "status": "видана" }, "geometry": { "type": "Point", "coordinates": [ 30.548181, 50.442439 ] } },
{ "type": "Feature", "properties": { "lon": 30.637869, "lat": 50.459101, "name": "ТОВ Біч Бар", "number": 65748, "type": "алкогольні напої", "from": "2016-06-09", "to": "2017-06-08", "address": "вул. Магнітогорська, 1 А", "status": "видана" }, "geometry": { "type": "Point", "coordinates": [ 30.637869, 50.459101 ] } },
{ "type": "Feature", "properties": { "lon": 30.519552, "lat": 50.486218, "name": "ТОВ Блокбастер Кіно", "number": 65749, "type": "алкогольні напої", "from": "2016-06-09", "to": "2017-06-08", "address": "просп. Московський, 34 В", "status": "видана" }, "geometry": { "type": "Point", "coordinates": [ 30.519552, 50.486218 ] } },
{ "type": "Feature", "properties": { "lon": 30.496573, "lat": 50.500842, "name": "ТОВ Єврохата-Сервіс", "number": 65750, "type": "алкогольні напої", "from": "2016-06-17", "to": "2017-06-16", "address": "вул. Малиновського, 12", "status": "видана" }, "geometry": { "type": "Point", "coordinates": [ 30.496573, 50.500842 ] } },
{ "type": "Feature", "properties": { "lon": 30.521915, "lat": 50.493954, "name": "ТОВ Европейский Дом Вкуса", "number": 65751, "type": "алкогольні напої", "from": "2016-06-21", "to": "2017-06-20", "address": "просп. Героїв Сталінграда, 4-а", "status": "видана" }, "geometry": { "type": "Point", "coordinates": [ 30.521915, 50.493954 ] } },
{ "type": "Feature", "properties": { "lon": 30.498657, "lat": 50.516326, "name": "ФОП Згурська Наталія Степанівна", "number": 65753, "type": "алкогольні напої", "from": "2016-06-13", "to": "2017-06-12", "address": "Оболонський просп., 21-б", "status": "видана" }, "geometry": { "type": "Point", "coordinates": [ 30.498657, 50.516326 ] } },
{ "type": "Feature", "properties": { "lon": 30.622876, "lat": 50.450183, "name": "ФОП Аржаннікова Людмила Едуардівна", "number": 65755, "type": "алкогольні напої", "from": "2016-06-16", "to": "2017-06-15", "address": "б-р Верховної Ради, 21 Б", "status": "видана" }, "geometry": { "type": "Point", "coordinates": [ 30.622876, 50.450183 ] } },
{ "type": "Feature", "properties": { "lon": 30.6627566, "lat": 50.4322473, "name": "ТОВ Юнітек", "number": 65757, "type": "алкогольні напої", "from": "2016-06-10", "to": "2017-06-09", "address": "вул. Бориспільська, 9 1 А", "status": "видана" }, "geometry": { "type": "Point", "coordinates": [ 30.6627566, 50.4322473 ] } },
{ "type": "Feature", "properties": { "lon": 30.546151, "lat": 50.338194, "name": "ФОП Стефанчишен Вадим Вікторович", "number": 65758, "type": "алкогольні напої", "from": "2016-06-10", "to": "2017-06-09", "address": "вул. Столичне шосе, 104 А", "status": "видана" }, "geometry": { "type": "Point", "coordinates": [ 30.546151, 50.338194 ] } },
{ "type": "Feature", "properties": { "lon": 30.631698, "lat": 50.482825, "name": "ТОВ Рітейл Солюшн", "number": 65761, "type": "алкогольні напої", "from": "2016-06-06", "to": "2017-06-05", "address": "просп. Лісовий, 25-д", "status": "видана" }, "geometry": { "type": "Point", "coordinates": [ 30.631698, 50.482825 ] } },
{ "type": "Feature", "properties": { "lon": 30.631338, "lat": 50.482544, "name": "ТОВ Рітейл Солюшн", "number": 65762, "type": "алкогольні напої", "from": "2016-06-06", "to": "2017-06-05", "address": "просп. Лісовий, 23", "status": "видана" }, "geometry": { "type": "Point", "coordinates": [ 30.631338, 50.482544 ] } },
{ "type": "Feature", "properties": { "lon": 30.634303, "lat": 50.484034, "name": "ТОВ Рітейл Солюшн", "number": 65763, "type": "алкогольні напої", "from": "2016-06-06", "to": "2017-06-05", "address": "вул. Жукова, 20", "status": "видана" }, "geometry": { "type": "Point", "coordinates": [ 30.634303, 50.484034 ] } },
{ "type": "Feature", "properties": { "lon": 30.508278, "lat": 50.448996, "name": "ФОП Постовий Тимур Віталійович", "number": 65764, "type": "пиво", "from": "2016-07-06", "to": "2017-07-05", "address": "вул. В'ячеслава Липинського, 3 А", "status": "видана" }, "geometry": { "type": "Point", "coordinates": [ 30.508278, 50.448996 ] } },
{ "type": "Feature", "properties": { "lon": 30.510713, "lat": 50.473349, "name": "ФОП Заєць Крістіна Сергіївна", "number": 65765, "type": "алкогольні напої", "from": "2016-06-09", "to": "2017-06-08", "address": "вул. Оболонська, 35, приміщення 38", "status": "видана" }, "geometry": { "type": "Point", "coordinates": [ 30.510713, 50.473349 ] } },
{ "type": "Feature", "properties": { "lon": 30.495405, "lat": 50.44556, "name": "ТОВ Аврора-2012", "number": 65767, "type": "алкогольні напої", "from": "2016-06-19", "to": "2017-06-18", "address": "вул. Саксаганського, 120", "status": "видана" }, "geometry": { "type": "Point", "coordinates": [ 30.495405, 50.44556 ] } },
{ "type": "Feature", "properties": { "lon": 30.439422, "lat": 50.515026, "name": "ТОВ Марта ЛТД", "number": 65769, "type": "алкогольні напої", "from": "2016-07-01", "to": "2017-06-30", "address": "Вітряні Гори\/осиповського, 21\/7", "status": "видана" }, "geometry": { "type": "Point", "coordinates": [ 30.439422, 50.515026 ] } },
{ "type": "Feature", "properties": { "lon": 30.436494, "lat": 50.492413, "name": "ТОВ Прод-ЛТВ", "number": 65771, "type": "алкогольні напої", "from": "2016-06-06", "to": "2017-06-05", "address": "вул. Білицька, 72 Г", "status": "видана" }, "geometry": { "type": "Point", "coordinates": [ 30.436494, 50.492413 ] } },
{ "type": "Feature", "properties": { "lon": 30.511809, "lat": 50.436157, "name": "ФОП Іваненко Євгеній Володимирович", "number": 65774, "type": "алкогольні напої", "from": "2016-06-29", "to": "2017-06-28", "address": "вул. Саксаганського, 32", "status": "видана" }, "geometry": { "type": "Point", "coordinates": [ 30.511809, 50.436157 ] } },
{ "type": "Feature", "properties": { "lon": 30.457523, "lat": 50.507195, "name": "ТОВ Голд Інтерконтиненталь", "number": 65775, "type": "алкогольні напої", "from": "2016-06-10", "to": "2017-06-09", "address": "вул. Автозаводська, 27", "status": "видана" }, "geometry": { "type": "Point", "coordinates": [ 30.457523, 50.507195 ] } },
{ "type": "Feature", "properties": { "lon": 30.4288878, "lat": 50.4127753, "name": "ФОП Максимова Яна Євгенівна", "number": 65777, "type": "пиво", "from": "2016-07-05", "to": "2017-07-04", "address": "вул. Пост-волинська, 2\/103", "status": "видана" }, "geometry": { "type": "Point", "coordinates": [ 30.4288878, 50.4127753 ] } },
{ "type": "Feature", "properties": { "lon": 30.640645, "lat": 50.419929, "name": "ТОВ Анисс", "number": 65780, "type": "алкогольні напої", "from": "2016-06-07", "to": "2017-06-06", "address": "вул. Ревуцького, 2-г", "status": "видана" }, "geometry": { "type": "Point", "coordinates": [ 30.640645, 50.419929 ] } },
{ "type": "Feature", "properties": { "lon": 30.541965, "lat": 50.435974, "name": "ФОП Лазик Іван Іванович", "number": 65781, "type": "алкогольні напої", "from": "2016-07-01", "to": "2017-06-30", "address": "вул. Гусовського, 1", "status": "видана" }, "geometry": { "type": "Point", "coordinates": [ 30.541965, 50.435974 ] } },
{ "type": "Feature", "properties": { "lon": 30.624871, "lat": 50.408398, "name": "ТОВ Біля Хати", "number": 65783, "type": "алкогольні напої", "from": "2016-06-09", "to": "2017-06-08", "address": "вул. А. Ахматової, 22, приміщення 2003", "status": "видана" }, "geometry": { "type": "Point", "coordinates": [ 30.624871, 50.408398 ] } },
{ "type": "Feature", "properties": { "lon": 30.503418, "lat": 50.455666, "name": "ФОП Кочеткова Тамара Юріївна", "number": 65785, "type": "алкогольні напої", "from": "2016-06-09", "to": "2017-06-08", "address": "вул. Артема, 11 А", "status": "видана" }, "geometry": { "type": "Point", "coordinates": [ 30.503418, 50.455666 ] } },
{ "type": "Feature", "properties": { "lon": 30.5475303, "lat": 50.4409439, "name": "ТОВ Вайн Хауз Групп", "number": 65786, "type": "алкогольні напої", "from": "2016-06-10", "to": "2017-06-09", "address": "вул. Січневого Повстання, 17", "status": "видана" }, "geometry": { "type": "Point", "coordinates": [ 30.5475303, 50.4409439 ] } },
{ "type": "Feature", "properties": { "lon": 30.5354667, "lat": 50.4163063, "name": "ФОП Лазик Сергій Іванович", "number": 65788, "type": "пиво", "from": "2016-07-01", "to": "2017-06-30", "address": "вул. Івана Кудрі, 20 А-б", "status": "видана" }, "geometry": { "type": "Point", "coordinates": [ 30.5354667, 50.4163063 ] } },
{ "type": "Feature", "properties": { "lon": 30.594157, "lat": 50.448743, "name": "ФОП Лазик Олександр Іванович", "number": 65789, "type": "пиво", "from": "2016-07-01", "to": "2017-06-30", "address": "вул. Раїси Окіпної, 7", "status": "видана" }, "geometry": { "type": "Point", "coordinates": [ 30.594157, 50.448743 ] } },
{ "type": "Feature", "properties": { "lon": 30.519552, "lat": 50.486218, "name": "ТОВ Блокбастер Кіно", "number": 65791, "type": "алкогольні напої", "from": "2016-06-09", "to": "2017-06-08", "address": "просп. Московський, 34 В", "status": "видана" }, "geometry": { "type": "Point", "coordinates": [ 30.519552, 50.486218 ] } },
{ "type": "Feature", "properties": { "lon": 30.519552, "lat": 50.486218, "name": "ТОВ Блокбастер Кіно", "number": 65792, "type": "алкогольні напої", "from": "2016-06-09", "to": "2017-06-08", "address": "просп. Московський, 34 В", "status": "видана" }, "geometry": { "type": "Point", "coordinates": [ 30.519552, 50.486218 ] } },
{ "type": "Feature", "properties": { "lon": 30.491641, "lat": 50.440603, "name": "ФОП Глушич Вадим Миколайович", "number": 65794, "type": "алкогольні напої", "from": "2016-06-26", "to": "2017-06-25", "address": "вул. Вокзальна, 1", "status": "видана" }, "geometry": { "type": "Point", "coordinates": [ 30.491641, 50.440603 ] } },
{ "type": "Feature", "properties": { "lon": 30.447283, "lat": 50.473871, "name": "ТОВ Фаядко", "number": 65795, "type": "алкогольні напої", "from": "2016-06-06", "to": "2017-06-05", "address": "вул. Щусєва, 2\/19", "status": "видана" }, "geometry": { "type": "Point", "coordinates": [ 30.447283, 50.473871 ] } },
{ "type": "Feature", "properties": { "lon": 30.581266, "lat": 50.493301, "name": "ФОП Скляренко Оксана Миколаївна", "number": 65796, "type": "алкогольні напої", "from": "2016-06-23", "to": "2017-06-22", "address": "просп. Ватутіна, 10 А", "status": "видана" }, "geometry": { "type": "Point", "coordinates": [ 30.581266, 50.493301 ] } },
{ "type": "Feature", "properties": { "lon": 30.518519, "lat": 50.463924, "name": "ФОП Борис Інна Денисівна", "number": 65798, "type": "пиво", "from": "2016-07-01", "to": "2017-06-30", "address": "Контрактова площа, 4, зуп. Контрактова площа", "status": "видана" }, "geometry": { "type": "Point", "coordinates": [ 30.518519, 50.463924 ] } },
{ "type": "Feature", "properties": { "lon": 30.447976, "lat": 50.3775244, "name": "ФОП Борис Інна Денисівна", "number": 65799, "type": "пиво", "from": "2016-07-01", "to": "2017-06-30", "address": "вул. Кільцева дорога, непарна сторона, зуп. вул. Лятошинського", "status": "видана" }, "geometry": { "type": "Point", "coordinates": [ 30.447976, 50.3775244 ] } },
{ "type": "Feature", "properties": { "lon": 30.4842872, "lat": 50.3921174, "name": "ФОП Борис Інна Денисівна", "number": 65800, "type": "пиво", "from": "2016-07-01", "to": "2017-06-30", "address": "вул. Васильківська, непарна сторона, зуп. ст. м. Васильківська", "status": "видана" }, "geometry": { "type": "Point", "coordinates": [ 30.4842872, 50.3921174 ] } },
{ "type": "Feature", "properties": { "lon": 30.4720039, "lat": 50.4693566, "name": "ФОП Борис Інна Денисівна", "number": 65801, "type": "пиво", "from": "2016-07-01", "to": "2017-06-30", "address": "вул. Герцена, парна сторона, зуп. вул. Овруцька", "status": "видана" }, "geometry": { "type": "Point", "coordinates": [ 30.4720039, 50.4693566 ] } },
{ "type": "Feature", "properties": { "lon": 30.4254236, "lat": 50.5117302, "name": "ФОП Борис Інна Денисівна", "number": 65802, "type": "пиво", "from": "2016-07-01", "to": "2017-06-30", "address": "просп. Свободи, непарна сторона, зуп. Проспект Свободи", "status": "видана" }, "geometry": { "type": "Point", "coordinates": [ 30.4254236, 50.5117302 ] } },
{ "type": "Feature", "properties": { "lon": 30.3856036, "lat": 50.4586824, "name": "ФОП Борис Інна Денисівна", "number": 65803, "type": "пиво", "from": "2016-07-01", "to": "2017-06-30", "address": "площа Героїв Бреста, 1, зуп. ст. м. Святошин", "status": "видана" }, "geometry": { "type": "Point", "coordinates": [ 30.3856036, 50.4586824 ] } },
{ "type": "Feature", "properties": { "lon": 30.4628445, "lat": 50.3658877, "name": "ФОП Борис Інна Денисівна", "number": 65804, "type": "пиво", "from": "2016-07-01", "to": "2017-06-30", "address": "вул. Академіка Заболотного, 42-а, зуп. Торговий центр", "status": "видана" }, "geometry": { "type": "Point", "coordinates": [ 30.4628445, 50.3658877 ] } },
{ "type": "Feature", "properties": { "lon": 30.4429434, "lat": 50.4539813, "name": "ФОП Борис Інна Денисівна", "number": 65805, "type": "пиво", "from": "2016-07-01", "to": "2017-06-30", "address": "просп. Перемоги, парна сторона, зуп. ст. м. Шулявська", "status": "видана" }, "geometry": { "type": "Point", "coordinates": [ 30.4429434, 50.4539813 ] } },
{ "type": "Feature", "properties": { "lon": 30.44708, "lat": 50.4730904, "name": "ФОП Борис Інна Денисівна", "number": 65806, "type": "пиво", "from": "2016-07-01", "to": "2017-06-30", "address": "вул. О.Теліги", "status": "видана" }, "geometry": { "type": "Point", "coordinates": [ 30.44708, 50.4730904 ] } },
{ "type": "Feature", "properties": { "lon": 30.3668815, "lat": 50.4265774, "name": "ФОП Борис Інна Денисівна", "number": 65807, "type": "пиво", "from": "2016-07-01", "to": "2017-06-30", "address": "вул. Зодчих, 46, зуп. вул. Зодчих", "status": "видана" }, "geometry": { "type": "Point", "coordinates": [ 30.3668815, 50.4265774 ] } },
{ "type": "Feature", "properties": { "lon": 30.4321826, "lat": 50.4415539, "name": "ФОП Борис Інна Денисівна", "number": 65808, "type": "пиво", "from": "2016-07-01", "to": "2017-06-30", "address": "вул. Борщагівська, 193, зуп. Нау", "status": "видана" }, "geometry": { "type": "Point", "coordinates": [ 30.4321826, 50.4415539 ] } },
{ "type": "Feature", "properties": { "lon": 30.4541367, "lat": 50.4317806, "name": "ФОП Борис Інна Денисівна", "number": 65809, "type": "пиво", "from": "2016-07-01", "to": "2017-06-30", "address": "б-р Чоколівський, непарна сторона, зуп. Площа Космонавтів", "status": "видана" }, "geometry": { "type": "Point", "coordinates": [ 30.4541367, 50.4317806 ] } },
{ "type": "Feature", "properties": { "lon": 30.4063227, "lat": 50.4729341, "name": "ФОП Ганул Олександр Валентинович", "number": 65810, "type": "пиво", "from": "2016-07-01", "to": "2017-06-30", "address": "вул. Щербакова, 56\/7", "status": "видана" }, "geometry": { "type": "Point", "coordinates": [ 30.4063227, 50.4729341 ] } },
{ "type": "Feature", "properties": { "lon": 30.445908, "lat": 50.469829, "name": "ФОП Ганул Олександр Валентинович", "number": 65811, "type": "пиво", "from": "2016-07-01", "to": "2017-06-30", "address": "вул. Дорогожицька, 13", "status": "видана" }, "geometry": { "type": "Point", "coordinates": [ 30.445908, 50.469829 ] } },
{ "type": "Feature", "properties": { "lon": 30.3828889, "lat": 50.4576416, "name": "ФОП Ганул Олександр Валентинович", "number": 65812, "type": "пиво", "from": "2016-07-01", "to": "2017-06-30", "address": "просп. Перемоги, парна сторона, зуп. вул. Генерала Вітрука", "status": "видана" }, "geometry": { "type": "Point", "coordinates": [ 30.3828889, 50.4576416 ] } },
{ "type": "Feature", "properties": { "lon": 30.3838434, "lat": 50.4314808, "name": "ФОП Ганул Олександр Валентинович", "number": 65813, "type": "пиво", "from": "2016-07-01", "to": "2017-06-30", "address": "вул. Гната Юри, 9, зуп. Універсам", "status": "видана" }, "geometry": { "type": "Point", "coordinates": [ 30.3838434, 50.4314808 ] } },
{ "type": "Feature", "properties": { "lon": 30.419615, "lat": 50.5079054, "name": "ФОП Ганул Олександр Валентинович", "number": 65814, "type": "пиво", "from": "2016-07-01", "to": "2017-06-30", "address": "просп. Порика, 14, зуп. Торгівельний комплекс", "status": "видана" }, "geometry": { "type": "Point", "coordinates": [ 30.419615, 50.5079054 ] } },
{ "type": "Feature", "properties": { "lon": 30.405206, "lat": 50.460082, "name": "ФОП Ганул Олександр Валентинович", "number": 65815, "type": "пиво", "from": "2016-07-01", "to": "2017-06-30", "address": "вул. Щербакова, 1", "status": "видана" }, "geometry": { "type": "Point", "coordinates": [ 30.405206, 50.460082 ] } },
{ "type": "Feature", "properties": { "lon": 30.467046, "lat": 50.450412, "name": "ФОП Ганул Олександр Валентинович", "number": 65816, "type": "пиво", "from": "2016-07-01", "to": "2017-06-30", "address": "пров. Політехнічний, 1\/33", "status": "видана" }, "geometry": { "type": "Point", "coordinates": [ 30.467046, 50.450412 ] } },
{ "type": "Feature", "properties": { "lon": 30.497678, "lat": 50.44338, "name": "ФОП Ганул Олександр Валентинович", "number": 65817, "type": "пиво", "from": "2016-07-01", "to": "2017-06-30", "address": "вул. Саксаганського, 106", "status": "видана" }, "geometry": { "type": "Point", "coordinates": [ 30.497678, 50.44338 ] } },
{ "type": "Feature", "properties": { "lon": 30.4737514, "lat": 50.4322001, "name": "ФОП Ганул Олександр Валентинович", "number": 65818, "type": "пиво", "from": "2016-07-01", "to": "2017-06-30", "address": "вул. Урицького, 40, зуп. вул. Сурікова", "status": "видана" }, "geometry": { "type": "Point", "coordinates": [ 30.4737514, 50.4322001 ] } },
{ "type": "Feature", "properties": { "lon": 30.4394382, "lat": 50.4397512, "name": "ФОП Ганул Олександр Валентинович", "number": 65819, "type": "пиво", "from": "2016-07-01", "to": "2017-06-30", "address": "вул. Лебедєва-Кумача, парна сторона, зуп. Лебедєва-Кумача", "status": "видана" }, "geometry": { "type": "Point", "coordinates": [ 30.4394382, 50.4397512 ] } },
{ "type": "Feature", "properties": { "lon": 30.522948, "lat": 50.447814, "name": "ФОП Ганул Олександр Валентинович", "number": 65820, "type": "пиво", "from": "2016-07-01", "to": "2017-06-30", "address": "вул. Хрещатик, 17", "status": "видана" }, "geometry": { "type": "Point", "coordinates": [ 30.522948, 50.447814 ] } },
{ "type": "Feature", "properties": { "lon": 30.5152123, "lat": 50.4436572, "name": "ФОП Ганул Олександр Валентинович", "number": 65821, "type": "пиво", "from": "2016-07-01", "to": "2017-06-30", "address": "ріг вул. Терещенківської та б-р Шевченка", "status": "видана" }, "geometry": { "type": "Point", "coordinates": [ 30.5152123, 50.4436572 ] } },
{ "type": "Feature", "properties": { "lon": 30.513512, "lat": 50.4394957, "name": "ФОП Ганул Олександр Валентинович", "number": 65822, "type": "пиво", "from": "2016-07-01", "to": "2017-06-30", "address": "ріг вул. Терещенківської та вул. Толстого", "status": "видана" }, "geometry": { "type": "Point", "coordinates": [ 30.513512, 50.4394957 ] } },
{ "type": "Feature", "properties": { "lon": 30.507631, "lat": 50.4472, "name": "ФОП Ганул Олександр Валентинович", "number": 65823, "type": "пиво", "from": "2016-07-01", "to": "2017-06-30", "address": "вул. Хмельницького, 44", "status": "видана" }, "geometry": { "type": "Point", "coordinates": [ 30.507631, 50.4472 ] } },
{ "type": "Feature", "properties": { "lon": 30.447363, "lat": 50.474077, "name": "ФОП Ганул Олександр Валентинович", "number": 65824, "type": "пиво", "from": "2016-07-01", "to": "2017-06-30", "address": "вул. О.Теліги, 19\/2", "status": "видана" }, "geometry": { "type": "Point", "coordinates": [ 30.447363, 50.474077 ] } },
{ "type": "Feature", "properties": { "lon": 30.3679456, "lat": 50.4236292, "name": "ФОП Ганул Олександр Валентинович", "number": 65825, "type": "пиво", "from": "2016-07-01", "to": "2017-06-30", "address": "вул. Кільцева дорога, в напрямку Одеської площі, зуп. 50-річчя Жовтня", "status": "видана" }, "geometry": { "type": "Point", "coordinates": [ 30.3679456, 50.4236292 ] } },
{ "type": "Feature", "properties": { "lon": 30.5046539, "lat": 50.5269639, "name": "ФОП Клименко Ігор Дмитрович", "number": 65826, "type": "пиво", "from": "2016-07-01", "to": "2017-06-30", "address": "просп. Героїв Сталінграда, 65, зуп. вул. Північна", "status": "видана" }, "geometry": { "type": "Point", "coordinates": [ 30.5046539, 50.5269639 ] } },
{ "type": "Feature", "properties": { "lon": 30.3491006, "lat": 50.4552094, "name": "ФОП Клименко Ігор Дмитрович", "number": 65827, "type": "пиво", "from": "2016-07-01", "to": "2017-06-30", "address": "просп. Перемоги, парна сторона, зуп. а\/с Дачна", "status": "видана" }, "geometry": { "type": "Point", "coordinates": [ 30.3491006, 50.4552094 ] } },
{ "type": "Feature", "properties": { "lon": 30.4214751, "lat": 50.5145211, "name": "ФОП Клименко Ігор Дмитрович", "number": 65828, "type": "пиво", "from": "2016-07-01", "to": "2017-06-30", "address": "просп. Свободи, 28, зуп. просп. Свободи", "status": "видана" }, "geometry": { "type": "Point", "coordinates": [ 30.4214751, 50.5145211 ] } },
{ "type": "Feature", "properties": { "lon": 30.4086805, "lat": 50.5079272, "name": "ФОП Клименко Ігор Дмитрович", "number": 65829, "type": "пиво", "from": "2016-07-01", "to": "2017-06-30", "address": "просп. Правди, 100, зуп. просп. Радянської України", "status": "видана" }, "geometry": { "type": "Point", "coordinates": [ 30.4086805, 50.5079272 ] } },
{ "type": "Feature", "properties": { "lon": 30.4255409, "lat": 50.4226855, "name": "ФОП Клименко Ігор Дмитрович", "number": 65830, "type": "пиво", "from": "2016-07-01", "to": "2017-06-30", "address": "просп. Відрадний, 28, зуп. б-р І. Лепсе", "status": "видана" }, "geometry": { "type": "Point", "coordinates": [ 30.4255409, 50.4226855 ] } },
{ "type": "Feature", "properties": { "lon": 30.4490493, "lat": 50.4272893, "name": "ФОП Клименко Ігор Дмитрович", "number": 65831, "type": "пиво", "from": "2016-07-01", "to": "2017-06-30", "address": "вул. Донецька, 37\/19, зуп. вул. Волинська", "status": "видана" }, "geometry": { "type": "Point", "coordinates": [ 30.4490493, 50.4272893 ] } },
{ "type": "Feature", "properties": { "lon": 30.446998, "lat": 50.5217558, "name": "ФОП Клименко Ігор Дмитрович", "number": 65832, "type": "пиво", "from": "2016-07-01", "to": "2017-06-30", "address": "вул. Сошенка, непарна сторона, зуп. площа Т. Шевченка", "status": "видана" }, "geometry": { "type": "Point", "coordinates": [ 30.446998, 50.5217558 ] } },
{ "type": "Feature", "properties": { "lon": 30.4589714, "lat": 50.4359642, "name": "ФОП Клименко Ігор Дмитрович", "number": 65833, "type": "пиво", "from": "2016-07-01", "to": "2017-06-30", "address": "вул. Єреванська, 14, зуп. вул. Єреванська", "status": "видана" }, "geometry": { "type": "Point", "coordinates": [ 30.4589714, 50.4359642 ] } },
{ "type": "Feature", "properties": { "lon": 30.495327, "lat": 50.522748, "name": "ФОП Клименко Ігор Дмитрович", "number": 65834, "type": "пиво", "from": "2016-07-01", "to": "2017-06-30", "address": "Оболонський просп., парна сторона, зуп. ст. м. Героїв Дніпра", "status": "видана" }, "geometry": { "type": "Point", "coordinates": [ 30.495327, 50.522748 ] } },
{ "type": "Feature", "properties": { "lon": 30.4907886, "lat": 50.46288, "name": "ФОП Клименко Ігор Дмитрович", "number": 65835, "type": "пиво", "from": "2016-07-01", "to": "2017-06-30", "address": "вул. Глибочицька, 17, зуп. вул. Соляна", "status": "видана" }, "geometry": { "type": "Point", "coordinates": [ 30.4907886, 50.46288 ] } },
{ "type": "Feature", "properties": { "lon": 30.4344289, "lat": 50.429934, "name": "ФОП Клименко Ігор Дмитрович", "number": 65836, "type": "пиво", "from": "2016-07-01", "to": "2017-06-30", "address": "просп. Відрадний, непарна сторона, зуп. вул. Чернишевського", "status": "видана" }, "geometry": { "type": "Point", "coordinates": [ 30.4344289, 50.429934 ] } },
{ "type": "Feature", "properties": { "lon": 30.4699606, "lat": 50.4725609, "name": "ФОП Клименко Ігор Дмитрович", "number": 65837, "type": "пиво", "from": "2016-07-01", "to": "2017-06-30", "address": "вул. Багговутівська, 1-3, зуп. вул. Пугачова", "status": "видана" }, "geometry": { "type": "Point", "coordinates": [ 30.4699606, 50.4725609 ] } },
{ "type": "Feature", "properties": { "lon": 30.5382701, "lat": 50.4278688, "name": "ФОП Клименко Ігор Дмитрович", "number": 65838, "type": "пиво", "from": "2016-07-01", "to": "2017-06-30", "address": "вул. Кутузова, непарна сторона, зуп. площа Л. Українки", "status": "видана" }, "geometry": { "type": "Point", "coordinates": [ 30.5382701, 50.4278688 ] } },
{ "type": "Feature", "properties": { "lon": 30.5389828, "lat": 50.4266733, "name": "ФОП Клименко Ігор Дмитрович", "number": 65839, "type": "пиво", "from": "2016-07-01", "to": "2017-06-30", "address": "б-р Л. Українки, парна сторона, зуп. площа Л. Українки", "status": "видана" }, "geometry": { "type": "Point", "coordinates": [ 30.5389828, 50.4266733 ] } },
{ "type": "Feature", "properties": { "lon": 30.5419513, "lat": 50.430257, "name": "ФОП Клименко Ігор Дмитрович", "number": 65840, "type": "пиво", "from": "2016-07-01", "to": "2017-06-30", "address": "вул. Кутузова, 4-а, зуп. вул. Кутузова", "status": "видана" }, "geometry": { "type": "Point", "coordinates": [ 30.5419513, 50.430257 ] } },
{ "type": "Feature", "properties": { "lon": 30.4751915, "lat": 50.4841539, "name": "ФОП Клименко Ігор Дмитрович", "number": 65841, "type": "пиво", "from": "2016-07-01", "to": "2017-06-30", "address": "вул. Фрунзе, парна сторона, зуп. Стадіон Спартак", "status": "видана" }, "geometry": { "type": "Point", "coordinates": [ 30.4751915, 50.4841539 ] } },
{ "type": "Feature", "properties": { "lon": 30.4644632, "lat": 50.4146472, "name": "ФОП Клименко Ігор Дмитрович", "number": 65842, "type": "пиво", "from": "2016-07-01", "to": "2017-06-30", "address": "вул. Пулюя, непарна Сторона, зуп. вул. Кадетський Гай", "status": "видана" }, "geometry": { "type": "Point", "coordinates": [ 30.4644632, 50.4146472 ] } },
{ "type": "Feature", "properties": { "lon": 30.4596203, "lat": 50.4948255, "name": "ФОП Клименко Ігор Дмитрович", "number": 65843, "type": "пиво", "from": "2016-07-01", "to": "2017-06-30", "address": "вул. Фрунзе, непарна сторона, зуп. Куренівський Ринок", "status": "видана" }, "geometry": { "type": "Point", "coordinates": [ 30.4596203, 50.4948255 ] } },
{ "type": "Feature", "properties": { "lon": 30.430906, "lat": 50.476405, "name": "ФОП Клименко Ольга Олександрівна", "number": 65844, "type": "пиво", "from": "2016-07-01", "to": "2017-06-30", "address": "вул. Щусєва, 55, біля ст. м. Сирець", "status": "видана" }, "geometry": { "type": "Point", "coordinates": [ 30.430906, 50.476405 ] } },
{ "type": "Feature", "properties": { "lon": 30.5173587, "lat": 50.4561624, "name": "ФОП Клименко Ольга Олександрівна", "number": 65845, "type": "пиво", "from": "2016-07-01", "to": "2017-06-30", "address": "вул. Володимирська, 11\/6", "status": "видана" }, "geometry": { "type": "Point", "coordinates": [ 30.5173587, 50.4561624 ] } },
{ "type": "Feature", "properties": { "lon": 30.416911, "lat": 50.455098, "name": "ФОП Клименко Ольга Олександрівна", "number": 65846, "type": "пиво", "from": "2016-07-01", "to": "2017-06-30", "address": "вул. Василенка, 2", "status": "видана" }, "geometry": { "type": "Point", "coordinates": [ 30.416911, 50.455098 ] } },
{ "type": "Feature", "properties": { "lon": 30.416911, "lat": 50.455098, "name": "ФОП Клименко Ольга Олександрівна", "number": 65847, "type": "пиво", "from": "2016-07-01", "to": "2017-06-30", "address": "вул. Павлівська, 23", "status": "видана" }, "geometry": { "type": "Point", "coordinates": [ 30.416911, 50.455098 ] } },
{ "type": "Feature", "properties": { "lon": 30.52487, "lat": 50.411486, "name": "ФОП Сальков В'ячеслав Володимирович", "number": 65848, "type": "пиво", "from": "2016-07-01", "to": "2017-06-30", "address": "вул. Горького, 180", "status": "видана" }, "geometry": { "type": "Point", "coordinates": [ 30.52487, 50.411486 ] } },
{ "type": "Feature", "properties": { "lon": 30.473558, "lat": 50.448772, "name": "ФОП Сальков В'ячеслав Володимирович", "number": 65849, "type": "пиво", "from": "2016-07-01", "to": "2017-06-30", "address": "просп. Перемоги, 17", "status": "видана" }, "geometry": { "type": "Point", "coordinates": [ 30.473558, 50.448772 ] } },
{ "type": "Feature", "properties": { "lon": 30.509581, "lat": 50.446868, "name": "ФОП Сальков В'ячеслав Володимирович", "number": 65850, "type": "пиво", "from": "2016-07-01", "to": "2017-06-30", "address": "вул. Б.Хмельницького, 38", "status": "видана" }, "geometry": { "type": "Point", "coordinates": [ 30.509581, 50.446868 ] } },
{ "type": "Feature", "properties": { "lon": 30.53044, "lat": 50.433937, "name": "ФОП Сальков В'ячеслав Володимирович", "number": 65851, "type": "пиво", "from": "2016-07-01", "to": "2017-06-30", "address": "б-р Л.Українки, 14", "status": "видана" }, "geometry": { "type": "Point", "coordinates": [ 30.53044, 50.433937 ] } },
{ "type": "Feature", "properties": { "lon": 30.4858593, "lat": 50.4542603, "name": "ФОП Сальков В'ячеслав Володимирович", "number": 65852, "type": "пиво", "from": "2016-07-01", "to": "2017-06-30", "address": "вул. Дмитрівська, 73", "status": "видана" }, "geometry": { "type": "Point", "coordinates": [ 30.4858593, 50.4542603 ] } },
{ "type": "Feature", "properties": { "lon": 30.515429, "lat": 50.42918, "name": "ФОП Сальков В'ячеслав Володимирович.", "number": 65853, "type": "пиво", "from": "2016-07-01", "to": "2017-06-30", "address": "вул. Велика Васильківська, 90", "status": "видана" }, "geometry": { "type": "Point", "coordinates": [ 30.515429, 50.42918 ] } },
{ "type": "Feature", "properties": { "lon": 30.3815231, "lat": 50.420082, "name": "ФОП Сальков В'ячеслав Володимирович", "number": 65854, "type": "пиво", "from": "2016-07-01", "to": "2017-06-30", "address": "б-р Кольцова, парна сторона в напрямку вул. Симиренко, зуп. Бульвар Кольцова", "status": "видана" }, "geometry": { "type": "Point", "coordinates": [ 30.3815231, 50.420082 ] } },
{ "type": "Feature", "properties": { "lon": 30.4733653, "lat": 50.4622095, "name": "ФОП Сальков В'ячеслав Володимирович", "number": 65855, "type": "пиво", "from": "2016-07-01", "to": "2017-06-30", "address": "вул. Дегтярівська, 10, зуп. вул. Довнар-Запольського", "status": "видана" }, "geometry": { "type": "Point", "coordinates": [ 30.4733653, 50.4622095 ] } },
{ "type": "Feature", "properties": { "lon": 30.4422413, "lat": 50.4429811, "name": "ФОП Сальков В'ячеслав Володимирович", "number": 65856, "type": "пиво", "from": "2016-07-01", "to": "2017-06-30", "address": "вул. Гетьмана, парна сторона, під Індустріальним шляхопроводом", "status": "видана" }, "geometry": { "type": "Point", "coordinates": [ 30.4422413, 50.4429811 ] } },
{ "type": "Feature", "properties": { "lon": 30.4421593, "lat": 50.4442684, "name": "ФОП Рябоконь Юрій Миколайович", "number": 65857, "type": "пиво", "from": "2016-07-01", "to": "2017-06-30", "address": "вул. Гетьмана, непарна сторона, зуп. вул. Борщагівська", "status": "видана" }, "geometry": { "type": "Point", "coordinates": [ 30.4421593, 50.4442684 ] } },
{ "type": "Feature", "properties": { "lon": 30.4439011, "lat": 50.4408652, "name": "ФОП Рябоконь Юрій Миколайович", "number": 65858, "type": "пиво", "from": "2016-07-01", "to": "2017-06-30", "address": "вул. Гетьмана, парна сторона, зуп. Лебедєва-Кумача", "status": "видана" }, "geometry": { "type": "Point", "coordinates": [ 30.4439011, 50.4408652 ] } },
{ "type": "Feature", "properties": { "lon": 30.4439011, "lat": 50.4408652, "name": "ФОП Рябоконь Юрій Миколайович", "number": 65859, "type": "пиво", "from": "2016-07-01", "to": "2017-06-30", "address": "вул. Гетьмана, непарна сторона, зуп. Лебедєва-Кумача", "status": "видана" }, "geometry": { "type": "Point", "coordinates": [ 30.4439011, 50.4408652 ] } },
{ "type": "Feature", "properties": { "lon": 30.4601085, "lat": 50.4246811, "name": "ФОП Рябоконь Юрій Миколайович", "number": 65860, "type": "пиво", "from": "2016-07-01", "to": "2017-06-30", "address": "б-р Чоколівський, 1, зуп. Севастопольська площа", "status": "видана" }, "geometry": { "type": "Point", "coordinates": [ 30.4601085, 50.4246811 ] } },
{ "type": "Feature", "properties": { "lon": 30.4740569, "lat": 50.4377151, "name": "ФОП Рябоконь Юрій Миколайович", "number": 65861, "type": "пиво", "from": "2016-07-01", "to": "2017-06-30", "address": "просп. Повітрофлотський, 19, зуп. вул. Фучика", "status": "видана" }, "geometry": { "type": "Point", "coordinates": [ 30.4740569, 50.4377151 ] } },
{ "type": "Feature", "properties": { "lon": 30.4410379, "lat": 50.4439032, "name": "ФОП Рябоконь Юрій Миколайович", "number": 65862, "type": "пиво", "from": "2016-07-01", "to": "2017-06-30", "address": "вул. Борщагівська, парна сторона, зуп. Індустріальний Міст", "status": "видана" }, "geometry": { "type": "Point", "coordinates": [ 30.4410379, 50.4439032 ] } },
{ "type": "Feature", "properties": { "lon": 30.4404559, "lat": 50.448695, "name": "ФОП Рябоконь Юрій Миколайович", "number": 65863, "type": "пиво", "from": "2016-07-01", "to": "2017-06-30", "address": "вул. Гетьмана, 25, зуп. вул. Виборзька", "status": "видана" }, "geometry": { "type": "Point", "coordinates": [ 30.4404559, 50.448695 ] } },
{ "type": "Feature", "properties": { "lon": 30.444221, "lat": 50.4517484, "name": "ФОП Рябоконь Юрій Миколайович", "number": 65864, "type": "пиво", "from": "2016-07-01", "to": "2017-06-30", "address": "вул. Гетьмана, 3, зуп. завод  Більшовик", "status": "видана" }, "geometry": { "type": "Point", "coordinates": [ 30.444221, 50.4517484 ] } },
{ "type": "Feature", "properties": { "lon": 30.4699903, "lat": 50.4344043, "name": "ФОП Рябоконь Юрій Миколайович", "number": 65865, "type": "пиво", "from": "2016-07-01", "to": "2017-06-30", "address": "просп. Повітрофлотський, 26\/1, зуп. вул. Курська", "status": "видана" }, "geometry": { "type": "Point", "coordinates": [ 30.4699903, 50.4344043 ] } },
{ "type": "Feature", "properties": { "lon": 30.4556058, "lat": 50.4318791, "name": "ФОП Рябоконь Юрій Миколайович", "number": 65866, "type": "пиво", "from": "2016-07-01", "to": "2017-06-30", "address": "б-р Чоколівський, 28, зуп. вул. Антонова", "status": "видана" }, "geometry": { "type": "Point", "coordinates": [ 30.4556058, 50.4318791 ] } },
{ "type": "Feature", "properties": { "lon": 30.4435676, "lat": 50.451986, "name": "ФОП Рябоконь Юрій Миколайович", "number": 65867, "type": "пиво", "from": "2016-07-01", "to": "2017-06-30", "address": "вул. Гетьмана, 2, зуп. завод  Більшовик", "status": "видана" }, "geometry": { "type": "Point", "coordinates": [ 30.4435676, 50.451986 ] } },
{ "type": "Feature", "properties": { "lon": 30.5004614, "lat": 50.4248966, "name": "ФОП Рябоконь Юрій Миколайович", "number": 65868, "type": "пиво", "from": "2016-07-01", "to": "2017-06-30", "address": "вул. Протасів Яр, Непрана Сторона, зуп. Грінченка", "status": "видана" }, "geometry": { "type": "Point", "coordinates": [ 30.5004614, 50.4248966 ] } },
{ "type": "Feature", "properties": { "lon": 30.4851092, "lat": 50.439294, "name": "ФОП Рябоконь Юрій Миколайович", "number": 65869, "type": "пиво", "from": "2016-07-01", "to": "2017-06-30", "address": "вул. Ползунова, непарна сторона, зуп. з\/в Південний", "status": "видана" }, "geometry": { "type": "Point", "coordinates": [ 30.4851092, 50.439294 ] } },
{ "type": "Feature", "properties": { "lon": 30.4487541, "lat": 50.4365602, "name": "ФОП Рябоконь Юрій Миколайович", "number": 65870, "type": "пиво", "from": "2016-07-01", "to": "2017-06-30", "address": "б-р Чоколівський, непарна сторона, зуп. з\/с Караваєві Дачі", "status": "видана" }, "geometry": { "type": "Point", "coordinates": [ 30.4487541, 50.4365602 ] } },
{ "type": "Feature", "properties": { "lon": 30.4420499, "lat": 50.4426361, "name": "ФОП Рябоконь Юрій Миколайович", "number": 65871, "type": "пиво", "from": "2016-07-01", "to": "2017-06-30", "address": "вул. Гетьмана, 34, зуп. вул. Борщагівська", "status": "видана" }, "geometry": { "type": "Point", "coordinates": [ 30.4420499, 50.4426361 ] } },
{ "type": "Feature", "properties": { "lon": 30.4587083, "lat": 50.4271962, "name": "ФОП Рябоконь Юрій Миколайович", "number": 65872, "type": "пиво", "from": "2016-07-01", "to": "2017-06-30", "address": "б-р Чоколівський, 12, зуп. Севастопольська площа", "status": "видана" }, "geometry": { "type": "Point", "coordinates": [ 30.4587083, 50.4271962 ] } },
{ "type": "Feature", "properties": { "lon": 30.470968, "lat": 50.4307564, "name": "ФОП Рябоконь Юрій Миколайович", "number": 65873, "type": "пиво", "from": "2016-07-01", "to": "2017-06-30", "address": "вул. Солом'янська, 1, зуп. вул. Солом'янська", "status": "видана" }, "geometry": { "type": "Point", "coordinates": [ 30.470968, 50.4307564 ] } },
{ "type": "Feature", "properties": { "lon": 30.402259, "lat": 50.458705, "name": "ФОП Рябоконь Юрій Миколайович", "number": 65874, "type": "пиво", "from": "2016-07-01", "to": "2017-06-30", "address": "просп. Перемоги, 88", "status": "видана" }, "geometry": { "type": "Point", "coordinates": [ 30.402259, 50.458705 ] } },
{ "type": "Feature", "properties": { "lon": 30.4442637, "lat": 50.4248207, "name": "ФОП Рябоконь Юрій Миколайович", "number": 65875, "type": "пиво", "from": "2016-07-01", "to": "2017-06-30", "address": "вул. Смілянська, парна сторона, зуп. Гуртожиток", "status": "видана" }, "geometry": { "type": "Point", "coordinates": [ 30.4442637, 50.4248207 ] } },
{ "type": "Feature", "properties": { "lon": 30.4717251, "lat": 50.4306411, "name": "ФОП Рябоконь Юрій Миколайович", "number": 65876, "type": "пиво", "from": "2016-07-01", "to": "2017-06-30", "address": "вул. Солом'янська, 2-2а, зуп. вул. Солом'янська", "status": "видана" }, "geometry": { "type": "Point", "coordinates": [ 30.4717251, 50.4306411 ] } },
{ "type": "Feature", "properties": { "lon": 30.4409604, "lat": 50.4433623, "name": "ФОП Андрущенко Марина Валентинівна", "number": 65877, "type": "пиво", "from": "2016-07-01", "to": "2017-06-30", "address": "вул. Борщагівська, непарна сторона, зуп. Індустріальний міст", "status": "видана" }, "geometry": { "type": "Point", "coordinates": [ 30.4409604, 50.4433623 ] } },
{ "type": "Feature", "properties": { "lon": 30.4296592, "lat": 50.507815, "name": "ФОП Андрущенко Марина Валентинівна", "number": 65878, "type": "пиво", "from": "2016-07-01", "to": "2017-06-30", "address": "просп. Свободи, непарна сторона, зуп. вул. Межова", "status": "видана" }, "geometry": { "type": "Point", "coordinates": [ 30.4296592, 50.507815 ] } },
{ "type": "Feature", "properties": { "lon": 30.5215214, "lat": 50.4058919, "name": "ФОП Андрущенко Марина Валентинівна", "number": 65879, "type": "пиво", "from": "2016-07-01", "to": "2017-06-30", "address": "просп. Науки, 1\/5, зуп. Московська площа", "status": "видана" }, "geometry": { "type": "Point", "coordinates": [ 30.5215214, 50.4058919 ] } },
{ "type": "Feature", "properties": { "lon": 30.4503551, "lat": 50.5048008, "name": "ФОП Андрущенко Марина Валентинівна", "number": 65880, "type": "пиво", "from": "2016-07-01", "to": "2017-06-30", "address": "вул. Вишгородська, 33, зуп. просп. Правди", "status": "видана" }, "geometry": { "type": "Point", "coordinates": [ 30.4503551, 50.5048008 ] } },
{ "type": "Feature", "properties": { "lon": 30.4906572, "lat": 50.4466544, "name": "ФОП Андрущенко Марина Валентинівна", "number": 65881, "type": "пиво", "from": "2016-07-01", "to": "2017-06-30", "address": "площа Перемоги, непарна сторона, зуп. площа Перемоги", "status": "видана" }, "geometry": { "type": "Point", "coordinates": [ 30.4906572, 50.4466544 ] } },
{ "type": "Feature", "properties": { "lon": 30.3913749, "lat": 50.4570141, "name": "ФОП Андрущенко Марина Валентинівна", "number": 65882, "type": "пиво", "from": "2016-07-01", "to": "2017-06-30", "address": "просп. Перемоги, непарна сторона, зуп. ст. м. Святошин", "status": "видана" }, "geometry": { "type": "Point", "coordinates": [ 30.3913749, 50.4570141 ] } },
{ "type": "Feature", "properties": { "lon": 30.4851315, "lat": 50.3929183, "name": "ФОП Андрущенко Марина Валентинівна", "number": 65883, "type": "пиво", "from": "2016-07-01", "to": "2017-06-30", "address": "вул. Васильківська, парна сторона, зуп. Амурська площа", "status": "видана" }, "geometry": { "type": "Point", "coordinates": [ 30.4851315, 50.3929183 ] } },
{ "type": "Feature", "properties": { "lon": 30.421766, "lat": 50.4592131, "name": "ФОП Андрущенко Марина Валентинівна", "number": 65884, "type": "пиво", "from": "2016-08-01", "to": "2017-07-31", "address": "вул. Лагерна, 46\/48, зуп. ст. м. Берестейська", "status": "видана" }, "geometry": { "type": "Point", "coordinates": [ 30.421766, 50.4592131 ] } },
{ "type": "Feature", "properties": { "lon": 30.3834592, "lat": 50.4579784, "name": "ФОП Андрущенко Марина Валентинівна", "number": 65885, "type": "пиво", "from": "2016-07-01", "to": "2017-06-30", "address": "просп. Перемоги, непарна сторона, зуп. вул. Вітрука", "status": "видана" }, "geometry": { "type": "Point", "coordinates": [ 30.3834592, 50.4579784 ] } },
{ "type": "Feature", "properties": { "lon": 30.523065, "lat": 50.447183, "name": "ФОП Кузьменко Петро Миколайович", "number": 65886, "type": "пиво", "from": "2016-07-01", "to": "2017-06-30", "address": "вул. Хрещатик, 19", "status": "видана" }, "geometry": { "type": "Point", "coordinates": [ 30.523065, 50.447183 ] } },
{ "type": "Feature", "properties": { "lon": 30.4263879, "lat": 50.4236523, "name": "ФОП Кузьменко Петро Миколайович", "number": 65887, "type": "пиво", "from": "2016-07-01", "to": "2017-06-30", "address": "просп. Відрадний, непарна сторона, зуп. б-р І. Лепсе", "status": "видана" }, "geometry": { "type": "Point", "coordinates": [ 30.4263879, 50.4236523 ] } },
{ "type": "Feature", "properties": { "lon": 30.5492181, "lat": 50.4414327, "name": "ФОП Кузьменко Петро Миколайович", "number": 65888, "type": "пиво", "from": "2016-07-01", "to": "2017-06-30", "address": "вул. І. Мазепи, 11, зуп. Готель Салют", "status": "видана" }, "geometry": { "type": "Point", "coordinates": [ 30.5492181, 50.4414327 ] } },
{ "type": "Feature", "properties": { "lon": 30.4847461, "lat": 50.421156, "name": "ФОП Кузьменко Петро Миколайович", "number": 65889, "type": "пиво", "from": "2016-07-01", "to": "2017-06-30", "address": "вул. Солом'янська, 28, зуп. вул. Волгоградська", "status": "видана" }, "geometry": { "type": "Point", "coordinates": [ 30.4847461, 50.421156 ] } },
{ "type": "Feature", "properties": { "lon": 30.5118435, "lat": 50.4070856, "name": "ФОП Кузьменко Петро Миколайович", "number": 65890, "type": "пиво", "from": "2016-07-01", "to": "2017-06-30", "address": "просп. Червонозоряий, зуп. просп. Червонозоряний", "status": "видана" }, "geometry": { "type": "Point", "coordinates": [ 30.5118435, 50.4070856 ] } },
{ "type": "Feature", "properties": { "lon": 30.419576, "lat": 50.4481933, "name": "ФОП Кузьменко Петро Миколайович", "number": 65891, "type": "пиво", "from": "2016-07-01", "to": "2017-06-30", "address": "вул. Василенка, 7, зуп. вул. Василенка", "status": "видана" }, "geometry": { "type": "Point", "coordinates": [ 30.419576, 50.4481933 ] } },
{ "type": "Feature", "properties": { "lon": 30.5993947, "lat": 50.4513594, "name": "ФОП Кузьменко Петро Миколайович", "number": 65892, "type": "пиво", "from": "2016-07-01", "to": "2017-06-30", "address": "вул. М. Раскової, непарна сторона, зуп. ст. м. Лівобережна ", "status": "видана" }, "geometry": { "type": "Point", "coordinates": [ 30.5993947, 50.4513594 ] } },
{ "type": "Feature", "properties": { "lon": 30.5990334, "lat": 50.4513697, "name": "ФОП Кузьменко Петро Миколайович", "number": 65893, "type": "пиво", "from": "2016-07-01", "to": "2017-06-30", "address": "вул. М. Раскової, непарна сторона, зуп. ст. м. Лівобережна ", "status": "видана" }, "geometry": { "type": "Point", "coordinates": [ 30.5990334, 50.4513697 ] } },
{ "type": "Feature", "properties": { "lon": 30.4288772, "lat": 50.4282926, "name": "ФОП Кузьменко Петро Миколайович", "number": 65894, "type": "пиво", "from": "2016-07-01", "to": "2017-06-30", "address": "просп. Відрадний, непарна сторона, зуп. вул. Героїв Севастополя", "status": "видана" }, "geometry": { "type": "Point", "coordinates": [ 30.4288772, 50.4282926 ] } },
{ "type": "Feature", "properties": { "lon": 30.515285, "lat": 50.407284, "name": "ФОП Кузьменко Петро Миколайович", "number": 65895, "type": "пиво", "from": "2016-07-01", "to": "2017-06-30", "address": "просп. Червонозоряний, 123", "status": "видана" }, "geometry": { "type": "Point", "coordinates": [ 30.515285, 50.407284 ] } },
{ "type": "Feature", "properties": { "lon": 30.522112, "lat": 50.44513, "name": "ФОП Кузьменко Петро Миколайович", "number": 65896, "type": "пиво", "from": "2016-07-01", "to": "2017-06-30", "address": "вул. Хрещатик , 23-27", "status": "видана" }, "geometry": { "type": "Point", "coordinates": [ 30.522112, 50.44513 ] } },
{ "type": "Feature", "properties": { "lon": 30.522885, "lat": 50.449644, "name": "ФОП Кузьменко Петро Миколайович", "number": 65897, "type": "пиво", "from": "2016-07-01", "to": "2017-06-30", "address": "вул. Хрещатик, 20-22", "status": "видана" }, "geometry": { "type": "Point", "coordinates": [ 30.522885, 50.449644 ] } },
{ "type": "Feature", "properties": { "lon": 30.513911, "lat": 50.449346, "name": "ФОП Кузьменко Петро Миколайович", "number": 65898, "type": "пиво", "from": "2016-07-01", "to": "2017-06-30", "address": "Золотоворітська, 15", "status": "видана" }, "geometry": { "type": "Point", "coordinates": [ 30.513911, 50.449346 ] } },
{ "type": "Feature", "properties": { "lon": 30.523065, "lat": 50.447183, "name": "ФОП Кузьменко Петро Миколайович", "number": 65899, "type": "пиво", "from": "2016-07-01", "to": "2017-06-30", "address": "вул. Хрещатик, 19", "status": "видана" }, "geometry": { "type": "Point", "coordinates": [ 30.523065, 50.447183 ] } },
{ "type": "Feature", "properties": { "lon": 30.480655, "lat": 50.442175, "name": "ФОП Кузьменко Петро Миколайович", "number": 65900, "type": "пиво", "from": "2016-07-01", "to": "2017-06-30", "address": "просп. Повітрофлотський, 5", "status": "видана" }, "geometry": { "type": "Point", "coordinates": [ 30.480655, 50.442175 ] } },
{ "type": "Feature", "properties": { "lon": 30.623577, "lat": 50.443661, "name": "ФОП Борис Інна Денисівна", "number": 65901, "type": "пиво", "from": "2016-07-01", "to": "2017-06-30", "address": "просп. Миру, 2\/3", "status": "видана" }, "geometry": { "type": "Point", "coordinates": [ 30.623577, 50.443661 ] } },
{ "type": "Feature", "properties": { "lon": 30.406275, "lat": 50.460546, "name": "ФОП Борис Інна Денисівна", "number": 65902, "type": "пиво", "from": "2016-07-01", "to": "2017-06-30", "address": "вул. Щербакова, 2", "status": "видана" }, "geometry": { "type": "Point", "coordinates": [ 30.406275, 50.460546 ] } },
{ "type": "Feature", "properties": { "lon": 30.5208792, "lat": 50.4953111, "name": "ТОВ Княжна Плюс", "number": 65904, "type": "алкогольні напої", "from": "2016-06-12", "to": "2017-06-11", "address": "просп. Героїв Сталінграда, 6, корпус 4, нежитлове приміщення 2", "status": "видана" }, "geometry": { "type": "Point", "coordinates": [ 30.5208792, 50.4953111 ] } },
{ "type": "Feature", "properties": { "lon": 30.617603, "lat": 50.450934, "name": "ФОП Кирильчук Федір Петрович", "number": 65907, "type": "алкогольні напої", "from": "2016-06-13", "to": "2017-06-12", "address": "вул. Червоноткацька, 14", "status": "видана" }, "geometry": { "type": "Point", "coordinates": [ 30.617603, 50.450934 ] } },
{ "type": "Feature", "properties": { "lon": 30.3373422, "lat": 50.4734622, "name": "ФОП Медведєв Віталій Дмитрович", "number": 65908, "type": "пиво", "from": "2016-07-06", "to": "2017-07-05", "address": "вул. Підлісна, 5-а", "status": "видана" }, "geometry": { "type": "Point", "coordinates": [ 30.3373422, 50.4734622 ] } },
{ "type": "Feature", "properties": { "lon": 30.357128, "lat": 50.463906, "name": "ФОП Пишна Вартітер Арчилівна", "number": 65909, "type": "пиво", "from": "2016-07-06", "to": "2017-07-05", "address": "б-р Вернадського, 87-а", "status": "видана" }, "geometry": { "type": "Point", "coordinates": [ 30.357128, 50.463906 ] } },
{ "type": "Feature", "properties": { "lon": 30.4544623, "lat": 50.3687387, "name": "ФОП Якимець Катерина Петрівна", "number": 65910, "type": "пиво", "from": "2016-07-01", "to": "2017-06-30", "address": "просп. Глушкова, непарна сторона, зуп. вул. Академіка Заболотного", "status": "видана" }, "geometry": { "type": "Point", "coordinates": [ 30.4544623, 50.3687387 ] } },
{ "type": "Feature", "properties": { "lon": 30.5533328, "lat": 50.4363952, "name": "ФОП Якимець Катерина Петрівна", "number": 65911, "type": "пиво", "from": "2016-07-01", "to": "2017-06-30", "address": "вул. Лаврська, 7, зуп. Києво-Печерська Лавра", "status": "видана" }, "geometry": { "type": "Point", "coordinates": [ 30.5533328, 50.4363952 ] } },
{ "type": "Feature", "properties": { "lon": 30.5344766, "lat": 50.4308716, "name": "ФОП Якимець Катерина Петрівна", "number": 65912, "type": "пиво", "from": "2016-07-01", "to": "2017-06-30", "address": "б-р Лесі Українки, парна сторона, зуп. Військовий госпіталь", "status": "видана" }, "geometry": { "type": "Point", "coordinates": [ 30.5344766, 50.4308716 ] } },
{ "type": "Feature", "properties": { "lon": 30.5516122, "lat": 50.4054883, "name": "ФОП Якимець Катерина Петрівна", "number": 65913, "type": "пиво", "from": "2016-07-01", "to": "2017-06-30", "address": "вул. Кіквідзе, непарна сторона, зуп. Джерело", "status": "видана" }, "geometry": { "type": "Point", "coordinates": [ 30.5516122, 50.4054883 ] } },
{ "type": "Feature", "properties": { "lon": 30.4859302, "lat": 50.3933624, "name": "ФОП Якимець Катерина Петрівна", "number": 65914, "type": "пиво", "from": "2016-07-01", "to": "2017-06-30", "address": "вул. Васиьківська, парна сторона, зуп. вул. Васильківська", "status": "видана" }, "geometry": { "type": "Point", "coordinates": [ 30.4859302, 50.3933624 ] } },
{ "type": "Feature", "properties": { "lon": 30.5102101, "lat": 50.4276036, "name": "ФОП Якимець Катерина Петрівна", "number": 65915, "type": "пиво", "from": "2016-07-01", "to": "2017-06-30", "address": "вул. Федорова, парна сторона, зуп. вул. Боженка", "status": "видана" }, "geometry": { "type": "Point", "coordinates": [ 30.5102101, 50.4276036 ] } },
{ "type": "Feature", "properties": { "lon": 30.5175765, "lat": 50.4046262, "name": "ФОП Якимець Катерина Петрівна", "number": 65916, "type": "пиво", "from": "2016-07-01", "to": "2017-06-30", "address": "просп. Голосіївський, непарна сторона, зуп. Московська площа", "status": "видана" }, "geometry": { "type": "Point", "coordinates": [ 30.5175765, 50.4046262 ] } },
{ "type": "Feature", "properties": { "lon": 30.5169127, "lat": 50.405088, "name": "ФОП Якимець Катерина Петрівна", "number": 65917, "type": "пиво", "from": "2016-07-01", "to": "2017-06-30", "address": "просп. Голосіївський, парна сторона, зуп. Московська площа", "status": "видана" }, "geometry": { "type": "Point", "coordinates": [ 30.5169127, 50.405088 ] } },
{ "type": "Feature", "properties": { "lon": 30.4773268, "lat": 50.3818987, "name": "ФОП Якимець Катерина Петрівна", "number": 65918, "type": "пиво", "from": "2016-07-01", "to": "2017-06-30", "address": "вул. Васильківська, непарна сторона, зуп. Виставковий центр", "status": "видана" }, "geometry": { "type": "Point", "coordinates": [ 30.4773268, 50.3818987 ] } },
{ "type": "Feature", "properties": { "lon": 30.521352, "lat": 50.4199862, "name": "ФОП Якимець Катерина Петрівна", "number": 65919, "type": "пиво", "from": "2016-07-01", "to": "2017-06-30", "address": "вул. В. Васильківська, 111, зуп. ст. м. Палац Україна", "status": "видана" }, "geometry": { "type": "Point", "coordinates": [ 30.521352, 50.4199862 ] } },
{ "type": "Feature", "properties": { "lon": 30.5304069, "lat": 50.437704, "name": "ФОП Якимець Катерина Петрівна", "number": 65920, "type": "пиво", "from": "2016-07-01", "to": "2017-06-30", "address": "вул. Мечникова, непарна сторона, зуп. ст. м. Кловська", "status": "видана" }, "geometry": { "type": "Point", "coordinates": [ 30.5304069, 50.437704 ] } },
{ "type": "Feature", "properties": { "lon": 30.5433757, "lat": 50.4223969, "name": "ФОП Якимець Катерина Петрівна", "number": 65921, "type": "пиво", "from": "2016-07-01", "to": "2017-06-30", "address": "б-р Лесі Українки, парна сторона, зуп. вул. Івана Кудрі", "status": "видана" }, "geometry": { "type": "Point", "coordinates": [ 30.5433757, 50.4223969 ] } },
{ "type": "Feature", "properties": { "lon": 30.5366625, "lat": 50.4300239, "name": "ФОП Якимець Катерина Петрівна", "number": 65922, "type": "пиво", "from": "2016-07-01", "to": "2017-06-30", "address": "б-р Лесі Українки, непарна сторона, зуп. Національний Університет технологій і дизайну", "status": "видана" }, "geometry": { "type": "Point", "coordinates": [ 30.5366625, 50.4300239 ] } },
{ "type": "Feature", "properties": { "lon": 30.512612, "lat": 50.466601, "name": "ФОП Якимець Катерина Петрівна", "number": 65923, "type": "пиво", "from": "2016-07-01", "to": "2017-06-30", "address": "вул. Верхній Вал, парна сторона, зуп. ст. м. Контрактова площа", "status": "видана" }, "geometry": { "type": "Point", "coordinates": [ 30.512612, 50.466601 ] } },
{ "type": "Feature", "properties": { "lon": 30.5155804, "lat": 50.4650544, "name": "ФОП Якимець Катерина Петрівна", "number": 65924, "type": "пиво", "from": "2016-07-01", "to": "2017-06-30", "address": "Контрактова площа, зуп. ст. м. Контрактова площа", "status": "видана" }, "geometry": { "type": "Point", "coordinates": [ 30.5155804, 50.4650544 ] } },
{ "type": "Feature", "properties": { "lon": 30.5247268, "lat": 50.4125157, "name": "ФОП Якимець Катерина Петрівна", "number": 65925, "type": "пиво", "from": "2016-07-01", "to": "2017-06-30", "address": "Либідська площа, зуп. ст. м. Либідська", "status": "видана" }, "geometry": { "type": "Point", "coordinates": [ 30.5247268, 50.4125157 ] } },
{ "type": "Feature", "properties": { "lon": 30.5122491, "lat": 50.4292988, "name": "ФОП Якимець Катерина Петрівна", "number": 65926, "type": "пиво", "from": "2016-07-01", "to": "2017-06-30", "address": "вул. Горького, 56, зуп. вул. Фізкультурна", "status": "видана" }, "geometry": { "type": "Point", "coordinates": [ 30.5122491, 50.4292988 ] } },
{ "type": "Feature", "properties": { "lon": 30.517881, "lat": 50.433581, "name": "ТОВ Софія-14", "number": 65928, "type": "алкогольні напої", "from": "2016-06-10", "to": "2017-06-09", "address": "Велика Васильківська, 53-55", "status": "видана" }, "geometry": { "type": "Point", "coordinates": [ 30.517881, 50.433581 ] } },
{ "type": "Feature", "properties": { "lon": 30.5042084, "lat": 50.4724513, "name": "ФОП Ганул Інга Анатоліївна", "number": 65929, "type": "пиво", "from": "2016-07-01", "to": "2017-06-30", "address": "вул. Межигірська, 58, біля ст. м. Т. Шевченка", "status": "видана" }, "geometry": { "type": "Point", "coordinates": [ 30.5042084, 50.4724513 ] } },
{ "type": "Feature", "properties": { "lon": 30.438219, "lat": 50.474525, "name": "ФОП Ганул Інга Анатоліївна", "number": 65930, "type": "пиво", "from": "2016-07-01", "to": "2017-06-30", "address": "вул. Щусєва, 25", "status": "видана" }, "geometry": { "type": "Point", "coordinates": [ 30.438219, 50.474525 ] } },
{ "type": "Feature", "properties": { "lon": 30.506014, "lat": 50.456194, "name": "ФОП Ганул Інга Анатоліївна", "number": 65931, "type": "пиво", "from": "2016-07-01", "to": "2017-06-30", "address": "Львівська площа, 8, зупинковий комплекс", "status": "видана" }, "geometry": { "type": "Point", "coordinates": [ 30.506014, 50.456194 ] } },
{ "type": "Feature", "properties": { "lon": 30.49183, "lat": 50.4463, "name": "ФОП Ганул Інга Анатоліївна", "number": 65932, "type": "пиво", "from": "2016-07-01", "to": "2017-06-30", "address": "площа Перемоги, 3", "status": "видана" }, "geometry": { "type": "Point", "coordinates": [ 30.49183, 50.4463 ] } },
{ "type": "Feature", "properties": { "lon": 30.463147, "lat": 50.42755, "name": "ФОП Ганул Інга Анатоліївна", "number": 65933, "type": "пиво", "from": "2016-07-01", "to": "2017-06-30", "address": "просп. Повітрофлотський, 38", "status": "видана" }, "geometry": { "type": "Point", "coordinates": [ 30.463147, 50.42755 ] } },
{ "type": "Feature", "properties": { "lon": 30.4816598, "lat": 50.4624597, "name": "ФОП Ганул Інга Анатоліївна", "number": 65934, "type": "пиво", "from": "2016-07-01", "to": "2017-06-30", "address": "вул. Мельникова, 1а, зуп. ст. м. Лук'янівська", "status": "видана" }, "geometry": { "type": "Point", "coordinates": [ 30.4816598, 50.4624597 ] } },
{ "type": "Feature", "properties": { "lon": 30.463479, "lat": 50.426954, "name": "ФОП Ганул Інга Анатоліївна", "number": 65935, "type": "пиво", "from": "2016-07-01", "to": "2017-06-30", "address": "просп. Повітрофлотський, 33\/2", "status": "видана" }, "geometry": { "type": "Point", "coordinates": [ 30.463479, 50.426954 ] } },
{ "type": "Feature", "properties": { "lon": 30.4782927, "lat": 50.4643066, "name": "ФОП Ганул Інга Анатоліївна", "number": 65936, "type": "пиво", "from": "2016-07-01", "to": "2017-06-30", "address": "вул. Мельникова, 9, зуп. вул. Герцена", "status": "видана" }, "geometry": { "type": "Point", "coordinates": [ 30.4782927, 50.4643066 ] } },
{ "type": "Feature", "properties": { "lon": 30.4300574, "lat": 50.477242, "name": "ФОП Ганул Інга Анатоліївна", "number": 65937, "type": "пиво", "from": "2016-07-01", "to": "2017-06-30", "address": "вул. Щусєва, непарна сторона, ст. м. Сирець", "status": "видана" }, "geometry": { "type": "Point", "coordinates": [ 30.4300574, 50.477242 ] } },
{ "type": "Feature", "properties": { "lon": 30.478149, "lat": 50.417995, "name": "ФОП Ганул Інга Анатоліївна", "number": 65938, "type": "пиво", "from": "2016-07-01", "to": "2017-06-30", "address": "просп. Червонозоряний, 57", "status": "видана" }, "geometry": { "type": "Point", "coordinates": [ 30.478149, 50.417995 ] } },
{ "type": "Feature", "properties": { "lon": 30.4572948, "lat": 50.4208913, "name": "ФОП Ганул Інга Анатоліївна", "number": 65939, "type": "пиво", "from": "2016-07-01", "to": "2017-06-30", "address": "вул. Народного Ополчення, 5а, зуп. вул. Смілянська", "status": "видана" }, "geometry": { "type": "Point", "coordinates": [ 30.4572948, 50.4208913 ] } },
{ "type": "Feature", "properties": { "lon": 30.4614217, "lat": 50.4252951, "name": "ФОП Ганул Інга Анатоліївна", "number": 65940, "type": "пиво", "from": "2016-07-01", "to": "2017-06-30", "address": "просп. Червонозоряний, 3, зуп. Севастопольська площа", "status": "видана" }, "geometry": { "type": "Point", "coordinates": [ 30.4614217, 50.4252951 ] } },
{ "type": "Feature", "properties": { "lon": 30.4883944, "lat": 50.4439481, "name": "ФОП Ганул Інга Анатоліївна", "number": 65941, "type": "пиво", "from": "2016-07-01", "to": "2017-06-30", "address": "вул. Старокзальна\/вул. Пестеля", "status": "видана" }, "geometry": { "type": "Point", "coordinates": [ 30.4883944, 50.4439481 ] } },
{ "type": "Feature", "properties": { "lon": 30.517172, "lat": 50.439812, "name": "ФОП Ганул Інга Анатоліївна", "number": 65942, "type": "пиво", "from": "2016-07-01", "to": "2017-06-30", "address": "вул. Велика Васильківська, 20", "status": "видана" }, "geometry": { "type": "Point", "coordinates": [ 30.517172, 50.439812 ] } },
{ "type": "Feature", "properties": { "lon": 30.4911829, "lat": 50.4519786, "name": "ФОП Ганул Інга Анатоліївна", "number": 65943, "type": "пиво", "from": "2016-07-01", "to": "2017-06-30", "address": "вул. Тургенівська, 46", "status": "видана" }, "geometry": { "type": "Point", "coordinates": [ 30.4911829, 50.4519786 ] } },
{ "type": "Feature", "properties": { "lon": 30.480592, "lat": 50.462249, "name": "ФОП Ганул Інга Анатоліївна", "number": 65944, "type": "пиво", "from": "2016-07-01", "to": "2017-06-30", "address": "вул. Білоруська, 8", "status": "видана" }, "geometry": { "type": "Point", "coordinates": [ 30.480592, 50.462249 ] } },
{ "type": "Feature", "properties": { "lon": 30.353112, "lat": 50.463241, "name": "ФОП Айдарканова Гульзухра Тулюгеновна", "number": 65945, "type": "алкогольні напої", "from": "2016-06-10", "to": "2017-06-09", "address": "просп. Академіка Палладіна, 13", "status": "видана" }, "geometry": { "type": "Point", "coordinates": [ 30.353112, 50.463241 ] } },
{ "type": "Feature", "properties": { "lon": 30.553796, "lat": 50.417151, "name": "ТОВ Баклажан", "number": 65946, "type": "алкогольні напої", "from": "2016-07-01", "to": "2017-06-30", "address": "вул. Бастіонна, 10 А", "status": "видана" }, "geometry": { "type": "Point", "coordinates": [ 30.553796, 50.417151 ] } },
{ "type": "Feature", "properties": { "lon": 30.425139, "lat": 50.429754, "name": "ФОП Ярославський Микола Анатолійович", "number": 65948, "type": "пиво", "from": "2016-07-01", "to": "2017-06-30", "address": "вул. Героїв Севастополя, 44\/10", "status": "видана" }, "geometry": { "type": "Point", "coordinates": [ 30.425139, 50.429754 ] } },
{ "type": "Feature", "properties": { "lon": 30.51259, "lat": 50.510283, "name": "ФОП Кокіна Наталія Володимирівна", "number": 65949, "type": "пиво", "from": "2016-07-23", "to": "2017-07-22", "address": "просп. Героїв Сталінграда, 20-а", "status": "видана" }, "geometry": { "type": "Point", "coordinates": [ 30.51259, 50.510283 ] } },
{ "type": "Feature", "properties": { "lon": 30.525445, "lat": 50.493146, "name": "ФОП Кокіна Наталія Володимирівна", "number": 65950, "type": "пиво", "from": "2016-06-15", "to": "2017-06-14", "address": "вул. Оболонська набережна, 7 корпус 5", "status": "видана" }, "geometry": { "type": "Point", "coordinates": [ 30.525445, 50.493146 ] } },
{ "type": "Feature", "properties": { "lon": 30.341183, "lat": 50.459594, "name": "ФОП Калитюк Олена Володимирівна", "number": 65951, "type": "алкогольні напої", "from": "2016-07-01", "to": "2017-06-30", "address": "вул. Прилужна, 7", "status": "видана" }, "geometry": { "type": "Point", "coordinates": [ 30.341183, 50.459594 ] } },
{ "type": "Feature", "properties": { "lon": 30.431966, "lat": 50.390575, "name": "ФОП Абраменко Олена Миколаїна", "number": 65953, "type": "алкогольні напої", "from": "2016-06-26", "to": "2017-06-25", "address": "вул. Садова, 68", "status": "видана" }, "geometry": { "type": "Point", "coordinates": [ 30.431966, 50.390575 ] } },
{ "type": "Feature", "properties": { "lon": 30.469471, "lat": 50.487479, "name": "ФОП Селіванов Олександр Олегович", "number": 65955, "type": "пиво", "from": "2016-06-11", "to": "2017-06-10", "address": "вул. Фрунзе, 111", "status": "видана" }, "geometry": { "type": "Point", "coordinates": [ 30.469471, 50.487479 ] } },
{ "type": "Feature", "properties": { "lon": 30.605054, "lat": 50.533889, "name": "ФОП Степаненко Тетяна Володимирівна", "number": 65956, "type": "пиво", "from": "2016-07-19", "to": "2017-07-18", "address": "вул. Милославська, 4", "status": "видана" }, "geometry": { "type": "Point", "coordinates": [ 30.605054, 50.533889 ] } },
{ "type": "Feature", "properties": { "lon": 30.5440872, "lat": 50.4118554, "name": "ТОВ Кафе Селект", "number": 65958, "type": "алкогольні напої", "from": "2016-06-10", "to": "2017-06-09", "address": "вул. Драгомирова, 12 нежитлове приміщення, 1", "status": "видана" }, "geometry": { "type": "Point", "coordinates": [ 30.5440872, 50.4118554 ] } },
{ "type": "Feature", "properties": { "lon": 30.472337, "lat": 50.505242, "name": "ПАТ Мультіплекс-Холдинг", "number": 65959, "type": "алкогольні напої", "from": "2016-07-01", "to": "2017-06-30", "address": "вул. Лугова, 12", "status": "видана" }, "geometry": { "type": "Point", "coordinates": [ 30.472337, 50.505242 ] } },
{ "type": "Feature", "properties": { "lon": 30.4361817, "lat": 50.4388479, "name": "ТОВ АТБ-Маркет", "number": 65960, "type": "алкогольні напої", "from": "2016-07-01", "to": "2017-06-30", "address": "вул. Лебедєва-Кумача, 7-в приміщення 253", "status": "видана" }, "geometry": { "type": "Point", "coordinates": [ 30.4361817, 50.4388479 ] } },
{ "type": "Feature", "properties": { "lon": 30.515743, "lat": 50.523124, "name": "ФОП Марчук Софія Василівна", "number": 65961, "type": "алкогольні напої", "from": "2016-07-01", "to": "2017-06-30", "address": "просп. Героїв Сталінграда, 50-а", "status": "видана" }, "geometry": { "type": "Point", "coordinates": [ 30.515743, 50.523124 ] } },
{ "type": "Feature", "properties": { "lon": 30.5226783, "lat": 50.4888213, "name": "ТОВ Окко-Рітейл", "number": 65965, "type": "алкогольні напої", "from": "2016-06-02", "to": "2017-06-01", "address": "просп. Героїв Сталінграду, 1 А", "status": "видана" }, "geometry": { "type": "Point", "coordinates": [ 30.5226783, 50.4888213 ] } },
{ "type": "Feature", "properties": { "lon": 30.6199245, "lat": 50.4532139, "name": "ФОП Кудімова Лариса Михайлівна", "number": 65966, "type": "пиво", "from": "2016-07-01", "to": "2017-06-30", "address": "б-р. Праці, ріг 2\/27 і 6\/14", "status": "видана" }, "geometry": { "type": "Point", "coordinates": [ 30.6199245, 50.4532139 ] } },
{ "type": "Feature", "properties": { "lon": 30.363883, "lat": 50.473378, "name": "ФОП Данильченко Лариса Миколаївна", "number": 65967, "type": "алкогольні напої", "from": "2016-07-14", "to": "2017-07-13", "address": "пров. Приладний, 10", "status": "видана" }, "geometry": { "type": "Point", "coordinates": [ 30.363883, 50.473378 ] } },
{ "type": "Feature", "properties": { "lon": 30.46038, "lat": 50.466125, "name": "ТОВ Торговий Дім Фрегат", "number": 65968, "type": "алкогольні напої", "from": "2016-06-16", "to": "2017-06-15", "address": "вул. Сімї Хохлових, 8", "status": "видана" }, "geometry": { "type": "Point", "coordinates": [ 30.46038, 50.466125 ] } },
{ "type": "Feature", "properties": { "lon": 30.5187564, "lat": 50.4527759, "name": "ТОВ Рокфеллоу 210", "number": 65970, "type": "алкогольні напої", "from": "2016-06-10", "to": "2017-06-09", "address": "пров. Михайлівський, 10\/2 А", "status": "видана" }, "geometry": { "type": "Point", "coordinates": [ 30.5187564, 50.4527759 ] } },
{ "type": "Feature", "properties": { "lon": 30.637869, "lat": 50.459101, "name": "ДОЧП Рітейл Центр", "number": 65972, "type": "алкогольні напої", "from": "2016-06-15", "to": "2017-06-14", "address": "вул. Магнітогорська, 1 А", "status": "видана" }, "geometry": { "type": "Point", "coordinates": [ 30.637869, 50.459101 ] } },
{ "type": "Feature", "properties": { "lon": 30.466174, "lat": 50.41524, "name": "ТОВ Апсара Груп", "number": 65974, "type": "алкогольні напої", "from": "2016-06-10", "to": "2017-06-09", "address": "вул. Івана Пулюя, 5-а", "status": "видана" }, "geometry": { "type": "Point", "coordinates": [ 30.466174, 50.41524 ] } },
{ "type": "Feature", "properties": { "lon": 30.433359, "lat": 50.45761, "name": "ФОП Устинова Галина Іванівна", "number": 65975, "type": "алкогольні напої", "from": "2016-07-01", "to": "2017-06-30", "address": "просп. Перемоги, 62а", "status": "видана" }, "geometry": { "type": "Point", "coordinates": [ 30.433359, 50.45761 ] } },
{ "type": "Feature", "properties": { "lon": 30.630578, "lat": 50.400679, "name": "ФОП Пелипенко Світлана Анатоліївна", "number": 65976, "type": "пиво", "from": "2016-07-01", "to": "2017-06-30", "address": "вул. Срібнокільська, З В", "status": "видана" }, "geometry": { "type": "Point", "coordinates": [ 30.630578, 50.400679 ] } },
{ "type": "Feature", "properties": { "lon": 30.589504, "lat": 50.508209, "name": "ФОП Зюлина Ірина Костянтинівна", "number": 65977, "type": "пиво", "from": "2016-07-01", "to": "2017-06-30", "address": "вул. Бальзака, 22", "status": "видана" }, "geometry": { "type": "Point", "coordinates": [ 30.589504, 50.508209 ] } },
{ "type": "Feature", "properties": { "lon": 30.672796, "lat": 50.414276, "name": "ФОП Алієв Логман Гафир Огли", "number": 65978, "type": "алкогольні напої", "from": "2016-06-27", "to": "2017-06-26", "address": "вул. Славгородська, 55", "status": "видана" }, "geometry": { "type": "Point", "coordinates": [ 30.672796, 50.414276 ] } },
{ "type": "Feature", "properties": { "lon": 30.500625, "lat": 50.523462, "name": "ПП Веріка", "number": 65981, "type": "алкогольні напої", "from": "2016-08-03", "to": "2017-08-02", "address": "вул. Героїв Дніпра, 41", "status": "видана" }, "geometry": { "type": "Point", "coordinates": [ 30.500625, 50.523462 ] } },
{ "type": "Feature", "properties": { "lon": 30.488794, "lat": 50.452145, "name": "ПП Арабіка", "number": 65987, "type": "алкогольні напої", "from": "2016-06-16", "to": "2017-06-15", "address": "вул. Дмитрівська, 39", "status": "видана" }, "geometry": { "type": "Point", "coordinates": [ 30.488794, 50.452145 ] } },
{ "type": "Feature", "properties": { "lon": 30.631177, "lat": 50.399648, "name": "ФОП Житченко Олександр Миколайович", "number": 65988, "type": "алкогольні напої", "from": "2016-06-13", "to": "2017-06-12", "address": "просп. Петра Григоренка, 32 Д", "status": "видана" }, "geometry": { "type": "Point", "coordinates": [ 30.631177, 50.399648 ] } },
{ "type": "Feature", "properties": { "lon": 30.3839331, "lat": 50.4291011, "name": "ТОВ Ві-вад", "number": 65989, "type": "алкогольні напої", "from": "2016-06-12", "to": "2017-06-11", "address": "перехрестя просп.Леся Курбаса та вул. Гната Юри, ТЦ Колібріс, ТК 17", "status": "видана" }, "geometry": { "type": "Point", "coordinates": [ 30.3839331, 50.4291011 ] } },