{
"type": "FeatureCollection",
"crs": { "type": "name", "properties": { "name": "urn:ogc:def:crs:OGC:1.3:CRS84" } },
                                                                                
"features": [
{ "type": "Feature", "properties": { "address": "Ак. Доброхотова вул., 11А", "network": "Фора", "lon": 30.364718, "lat": 50.461527 }, "geometry": { "type": "Point", "coordinates": [ 30.364718, 50.461527 ] } },
{ "type": "Feature", "properties": { "address": "Ак. Заболотного вул., 48А", "network": "Фора", "lon": 30.464935, "lat": 50.364035 }, "geometry": { "type": "Point", "coordinates": [ 30.464935, 50.364035 ] } },
{ "type": "Feature", "properties": { "address": "Ак. Корольова вул., 8", "network": "Фора", "lon": 30.39324, "lat": 50.429318 }, "geometry": { "type": "Point", "coordinates": [ 30.39324, 50.429318 ] } },
{ "type": "Feature", "properties": { "address": "Ак. Курчатова вул., 19а", "network": "Фора", "lon": 30.631186, "lat": 50.478428 }, "geometry": { "type": "Point", "coordinates": [ 30.631186, 50.478428 ] } },
{ "type": "Feature", "properties": { "address": "Ак. Курчатова вул., 5", "network": "Фора", "lon": 30.624394, "lat": 50.476514 }, "geometry": { "type": "Point", "coordinates": [ 30.624394, 50.476514 ] } },
{ "type": "Feature", "properties": { "address": "Алма-Атинська вул., 41-б", "network": "Фора", "lon": 30.661414, "lat": 50.444958 }, "geometry": { "type": "Point", "coordinates": [ 30.661414, 50.444958 ] } },
{ "type": "Feature", "properties": { "address": "Алма-Атинська вул., 54", "network": "Фора", "lon": 30.672625, "lat": 50.446386 }, "geometry": { "type": "Point", "coordinates": [ 30.672625, 50.446386 ] } },
{ "type": "Feature", "properties": { "address": "Антонова вул., 11", "network": "Фора", "lon": 30.460281, "lat": 50.429616 }, "geometry": { "type": "Point", "coordinates": [ 30.460281, 50.429616 ] } },
{ "type": "Feature", "properties": { "address": "Ахматової вул., 46а", "network": "Фора", "lon": 30.617891, "lat": 50.406532 }, "geometry": { "type": "Point", "coordinates": [ 30.617891, 50.406532 ] } },
{ "type": "Feature", "properties": { "address": "Бажана вул., 30", "network": "Фора", "lon": 30.647876, "lat": 50.399039 }, "geometry": { "type": "Point", "coordinates": [ 30.647876, 50.399039 ] } },
{ "type": "Feature", "properties": { "address": "Бальзака вул., 42\/20", "network": "Фора", "lon": 30.601227, "lat": 50.512437 }, "geometry": { "type": "Point", "coordinates": [ 30.601227, 50.512437 ] } },
{ "type": "Feature", "properties": { "address": "Бальзака вул., 94", "network": "Фора", "lon": 30.611099, "lat": 50.530522 }, "geometry": { "type": "Point", "coordinates": [ 30.611099, 50.530522 ] } },
{ "type": "Feature", "properties": { "address": "Бальзака вул., 66", "network": "Фора", "lon": 30.608961, "lat": 50.519751 }, "geometry": { "type": "Point", "coordinates": [ 30.608961, 50.519751 ] } },
{ "type": "Feature", "properties": { "address": "Березняківська вул., 36а", "network": "Фора", "lon": 30.597813, "lat": 50.423809 }, "geometry": { "type": "Point", "coordinates": [ 30.597813, 50.423809 ] } },
{ "type": "Feature", "properties": { "address": "Берлінського вул., 14", "network": "Фора", "lon": 30.441938, "lat": 50.476554 }, "geometry": { "type": "Point", "coordinates": [ 30.441938, 50.476554 ] } },
{ "type": "Feature", "properties": { "address": "Білецького вул., 11", "network": "Фора", "lon": 30.416012, "lat": 50.43019 }, "geometry": { "type": "Point", "coordinates": [ 30.416012, 50.43019 ] } },
{ "type": "Feature", "properties": { "address": "Білецького вул., 3", "network": "Фора", "lon": 30.421393, "lat": 50.431561 }, "geometry": { "type": "Point", "coordinates": [ 30.421393, 50.431561 ] } },
{ "type": "Feature", "properties": { "address": "Бойченка вул., 7", "network": "Фора", "lon": 30.618771, "lat": 50.463482 }, "geometry": { "type": "Point", "coordinates": [ 30.618771, 50.463482 ] } },
{ "type": "Feature", "properties": { "address": "Борщагівська вул., 128", "network": "Фора", "lon": 30.45181, "lat": 50.446759 }, "geometry": { "type": "Point", "coordinates": [ 30.45181, 50.446759 ] } },
{ "type": "Feature", "properties": { "address": "Борщагівська вул., 212", "network": "Фора", "lon": 30.432712, "lat": 50.441952 }, "geometry": { "type": "Point", "coordinates": [ 30.432712, 50.441952 ] } },
{ "type": "Feature", "properties": { "address": "Броварський пр., 51", "network": "Фора", "lon": 30.670837, "lat": 50.472415 }, "geometry": { "type": "Point", "coordinates": [ 30.670837, 50.472415 ] } },
{ "type": "Feature", "properties": { "address": "Будівельників вул., 29", "network": "Фора", "lon": 30.613399, "lat": 50.4495 }, "geometry": { "type": "Point", "coordinates": [ 30.613399, 50.4495 ] } },
{ "type": "Feature", "properties": { "address": "Будівельників вул., 8", "network": "Фора", "lon": 30.622553, "lat": 50.445307 }, "geometry": { "type": "Point", "coordinates": [ 30.622553, 50.445307 ] } },
{ "type": "Feature", "properties": { "address": "Б.Хмельницького вул., 39\/2", "network": "Фора", "lon": 30.503239, "lat": 50.447401 }, "geometry": { "type": "Point", "coordinates": [ 30.503239, 50.447401 ] } },
{ "type": "Feature", "properties": { "address": "В.Василевської вул., 6", "network": "Фора", "lon": 30.468672, "lat": 50.452798 }, "geometry": { "type": "Point", "coordinates": [ 30.468672, 50.452798 ] } },
{ "type": "Feature", "properties": { "address": "Василенко вул., 19", "network": "Фора", "lon": 30.424088, "lat": 50.442038 }, "geometry": { "type": "Point", "coordinates": [ 30.424088, 50.442038 ] } },
{ "type": "Feature", "properties": { "address": "В.Васильківська вул., 143\/2", "network": "Фора", "lon": 30.525804, "lat": 50.413105 }, "geometry": { "type": "Point", "coordinates": [ 30.525804, 50.413105 ] } },
{ "type": "Feature", "properties": { "address": "Вереснева вул., 24", "network": "Фора", "lon": 30.664837, "lat": 50.424911 }, "geometry": { "type": "Point", "coordinates": [ 30.664837, 50.424911 ] } },
{ "type": "Feature", "properties": { "address": "Вернадського пр., 16", "network": "Фора", "lon": 30.378139, "lat": 50.46077 }, "geometry": { "type": "Point", "coordinates": [ 30.378139, 50.46077 ] } },
{ "type": "Feature", "properties": { "address": "Верховної Ради бул., 17", "network": "Фора", "lon": 30.618879, "lat": 50.448933 }, "geometry": { "type": "Point", "coordinates": [ 30.618879, 50.448933 ] } },
{ "type": "Feature", "properties": { "address": "Верховної Ради бул., 27", "network": "Фора", "lon": 30.627045, "lat": 50.451192 }, "geometry": { "type": "Point", "coordinates": [ 30.627045, 50.451192 ] } },
{ "type": "Feature", "properties": { "address": "Верховинна вул., 69", "network": "Фора", "lon": 30.361709, "lat": 50.450934 }, "geometry": { "type": "Point", "coordinates": [ 30.361709, 50.450934 ] } },
{ "type": "Feature", "properties": { "address": "Вільгельма Піка вул., 26\/41", "network": "Фора", "lon": 30.413856, "lat": 50.469623 }, "geometry": { "type": "Point", "coordinates": [ 30.413856, 50.469623 ] } },
{ "type": "Feature", "properties": { "address": "Вишняківська вул., 17", "network": "Фора", "lon": 30.64405, "lat": 50.39425 }, "geometry": { "type": "Point", "coordinates": [ 30.64405, 50.39425 ] } },
{ "type": "Feature", "properties": { "address": "Відрадний пр., 14\/45", "network": "Фора", "lon": 30.430322, "lat": 50.42957 }, "geometry": { "type": "Point", "coordinates": [ 30.430322, 50.42957 ] } },
{ "type": "Feature", "properties": { "address": "Волгоградська вул., 21а", "network": "Фора", "lon": 30.491507, "lat": 50.42541 }, "geometry": { "type": "Point", "coordinates": [ 30.491507, 50.42541 ] } },
{ "type": "Feature", "properties": { "address": "Вишгородська вул., 44", "network": "Фора", "lon": 30.450481, "lat": 50.513869 }, "geometry": { "type": "Point", "coordinates": [ 30.450481, 50.513869 ] } },
{ "type": "Feature", "properties": { "address": "Вишгородська вул., 46", "network": "Фора", "lon": 30.45031, "lat": 50.515358 }, "geometry": { "type": "Point", "coordinates": [ 30.45031, 50.515358 ] } },
{ "type": "Feature", "properties": { "address": "Гавро вул., 20", "network": "Фора", "lon": 30.506257, "lat": 50.498435 }, "geometry": { "type": "Point", "coordinates": [ 30.506257, 50.498435 ] } },
{ "type": "Feature", "properties": { "address": "Гагаріна пр., 2\/35", "network": "Фора", "lon": 30.627961, "lat": 50.443931 }, "geometry": { "type": "Point", "coordinates": [ 30.627961, 50.443931 ] } },
{ "type": "Feature", "properties": { "address": "Гетьмана Вадима вул., 34", "network": "Фора", "lon": 30.442423, "lat": 50.442439 }, "geometry": { "type": "Point", "coordinates": [ 30.442423, 50.442439 ] } },
{ "type": "Feature", "properties": { "address": "Глушкова пр., 31а", "network": "Фора", "lon": 30.453759, "lat": 50.366064 }, "geometry": { "type": "Point", "coordinates": [ 30.453759, 50.366064 ] } },
{ "type": "Feature", "properties": { "address": "Голосіївський просп., 104", "network": "Фора", "lon": 30.495846, "lat": 50.388869 }, "geometry": { "type": "Point", "coordinates": [ 30.495846, 50.388869 ] } },
{ "type": "Feature", "properties": { "address": "Голосіївський просп., 118", "network": "Фора", "lon": 30.486117, "lat": 50.385148 }, "geometry": { "type": "Point", "coordinates": [ 30.486117, 50.385148 ] } },
{ "type": "Feature", "properties": { "address": "Горлівська вул., 124\/143", "network": "Фора", "lon": 30.659995, "lat": 50.412479 }, "geometry": { "type": "Point", "coordinates": [ 30.659995, 50.412479 ] } },
{ "type": "Feature", "properties": { "address": "Гродненська вул., 1\/35", "network": "Фора", "lon": 30.645649, "lat": 50.436088 }, "geometry": { "type": "Point", "coordinates": [ 30.645649, 50.436088 ] } },
{ "type": "Feature", "properties": { "address": "Дарницький бул., 23", "network": "Фора", "lon": 30.609671, "lat": 50.463591 }, "geometry": { "type": "Point", "coordinates": [ 30.609671, 50.463591 ] } },
{ "type": "Feature", "properties": { "address": "Дніпроводська вул., 7", "network": "Фора", "lon": 30.464961, "lat": 50.567136 }, "geometry": { "type": "Point", "coordinates": [ 30.464961, 50.567136 ] } },
{ "type": "Feature", "properties": { "address": "Драйзера вул., 24", "network": "Фора", "lon": 30.599412, "lat": 50.508581 }, "geometry": { "type": "Point", "coordinates": [ 30.599412, 50.508581 ] } },
{ "type": "Feature", "properties": { "address": "Драгоманова вул., 19", "network": "Фора", "lon": 30.639837, "lat": 50.408139 }, "geometry": { "type": "Point", "coordinates": [ 30.639837, 50.408139 ] } },
{ "type": "Feature", "properties": { "address": "Драгомирова вул., 2а", "network": "Фора", "lon": 30.544408, "lat": 50.413633 }, "geometry": { "type": "Point", "coordinates": [ 30.544408, 50.413633 ] } },
{ "type": "Feature", "properties": { "address": "Дяченка вул., 6", "network": "Фора", "lon": 30.697014, "lat": 50.386624 }, "geometry": { "type": "Point", "coordinates": [ 30.697014, 50.386624 ] } },
{ "type": "Feature", "properties": { "address": "Ентузіастів вул., 7", "network": "Фора", "lon": 30.601002, "lat": 50.435893 }, "geometry": { "type": "Point", "coordinates": [ 30.601002, 50.435893 ] } },
{ "type": "Feature", "properties": { "address": "Ентузіастів вул., 37", "network": "Фора", "lon": 30.599323, "lat": 50.442841 }, "geometry": { "type": "Point", "coordinates": [ 30.599323, 50.442841 ] } },
{ "type": "Feature", "properties": { "address": "Закревського Миколи вул., 93а", "network": "Фора", "lon": 30.627718, "lat": 50.529612 }, "geometry": { "type": "Point", "coordinates": [ 30.627718, 50.529612 ] } },
{ "type": "Feature", "properties": { "address": "Закревського Миколи вул., 87", "network": "Фора", "lon": 30.627592, "lat": 50.525976 }, "geometry": { "type": "Point", "coordinates": [ 30.627592, 50.525976 ] } },
{ "type": "Feature", "properties": { "address": "Зодчих вул., 16", "network": "Фора", "lon": 30.381769, "lat": 50.414878 }, "geometry": { "type": "Point", "coordinates": [ 30.381769, 50.414878 ] } },
{ "type": "Feature", "properties": { "address": "Зодчих вул., 52", "network": "Фора", "lon": 30.366228, "lat": 50.428027 }, "geometry": { "type": "Point", "coordinates": [ 30.366228, 50.428027 ] } },
{ "type": "Feature", "properties": { "address": "Їжакевича вул., 1\/24", "network": "Фора", "lon": 30.439539, "lat": 50.512036 }, "geometry": { "type": "Point", "coordinates": [ 30.439539, 50.512036 ] } },
{ "type": "Feature", "properties": { "address": "Карбишева вул., 12", "network": "Фора", "lon": 30.607174, "lat": 50.488929 }, "geometry": { "type": "Point", "coordinates": [ 30.607174, 50.488929 ] } },
{ "type": "Feature", "properties": { "address": "Картвелішвілі вул., 7\/2", "network": "Фора", "lon": 30.384823, "lat": 50.424256 }, "geometry": { "type": "Point", "coordinates": [ 30.384823, 50.424256 ] } },
{ "type": "Feature", "properties": { "address": "Кирилівська вул., 122\/1", "network": "Фора", "lon": 30.476693, "lat": 50.483323 }, "geometry": { "type": "Point", "coordinates": [ 30.476693, 50.483323 ] } },
{ "type": "Feature", "properties": { "address": "Кібальчича вул., 23\/35", "network": "Фора", "lon": 30.604739, "lat": 50.493467 }, "geometry": { "type": "Point", "coordinates": [ 30.604739, 50.493467 ] } },
{ "type": "Feature", "properties": { "address": "Кіпріанова вул., 8", "network": "Фора", "lon": 30.378562, "lat": 50.439158 }, "geometry": { "type": "Point", "coordinates": [ 30.378562, 50.439158 ] } },
{ "type": "Feature", "properties": { "address": "Княжий Затон вул., 2\/30", "network": "Фора", "lon": 30.629919, "lat": 50.404149 }, "geometry": { "type": "Point", "coordinates": [ 30.629919, 50.404149 ] } },
{ "type": "Feature", "properties": { "address": "Кольцова бул., 7 Б", "network": "Фора", "lon": 30.381418, "lat": 50.417478 }, "geometry": { "type": "Point", "coordinates": [ 30.381418, 50.417478 ] } },
{ "type": "Feature", "properties": { "address": "Кольцова бул., 24", "network": "Фора", "lon": 30.37592, "lat": 50.424893 }, "geometry": { "type": "Point", "coordinates": [ 30.37592, 50.424893 ] } },
{ "type": "Feature", "properties": { "address": "Комарова пр-т., 28", "network": "Фора", "lon": 30.419462, "lat": 50.438555 }, "geometry": { "type": "Point", "coordinates": [ 30.419462, 50.438555 ] } },
{ "type": "Feature", "properties": { "address": "Кондратюка вул., 2", "network": "Фора", "lon": 30.45543, "lat": 50.526085 }, "geometry": { "type": "Point", "coordinates": [ 30.45543, 50.526085 ] } },
{ "type": "Feature", "properties": { "address": "Курська вул., 11", "network": "Фора", "lon": 30.468321, "lat": 50.43587 }, "geometry": { "type": "Point", "coordinates": [ 30.468321, 50.43587 ] } },
{ "type": "Feature", "properties": { "address": "Кустанайська вул., 10", "network": "Фора", "lon": 30.505862, "lat": 50.405642 }, "geometry": { "type": "Point", "coordinates": [ 30.505862, 50.405642 ] } },
{ "type": "Feature", "properties": { "address": "Лагерна вул., 46\/48", "network": "Фора", "lon": 30.421717, "lat": 50.459181 }, "geometry": { "type": "Point", "coordinates": [ 30.421717, 50.459181 ] } },
{ "type": "Feature", "properties": { "address": "Лепсе бул., 29", "network": "Фора", "lon": 30.415464, "lat": 50.444889 }, "geometry": { "type": "Point", "coordinates": [ 30.415464, 50.444889 ] } },
{ "type": "Feature", "properties": { "address": "Лепсе бул., 45", "network": "Фора", "lon": 30.409221, "lat": 50.440626 }, "geometry": { "type": "Point", "coordinates": [ 30.409221, 50.440626 ] } },
{ "type": "Feature", "properties": { "address": "Лепсе бул., 54\/26", "network": "Фора", "lon": 30.425894, "lat": 50.423533 }, "geometry": { "type": "Point", "coordinates": [ 30.425894, 50.423533 ] } },
{ "type": "Feature", "properties": { "address": "Лепсе бул., 83", "network": "Фора", "lon": 30.419579, "lat": 50.426345 }, "geometry": { "type": "Point", "coordinates": [ 30.419579, 50.426345 ] } },
{ "type": "Feature", "properties": { "address": "Лісовий пр., 23", "network": "Фора", "lon": 30.631338, "lat": 50.482544 }, "geometry": { "type": "Point", "coordinates": [ 30.631338, 50.482544 ] } },
{ "type": "Feature", "properties": { "address": "Лісківська вул., 9А\/22", "network": "Фора", "lon": 30.602979, "lat": 50.523336 }, "geometry": { "type": "Point", "coordinates": [ 30.602979, 50.523336 ] } },
{ "type": "Feature", "properties": { "address": "Лук`янівська вул., 1", "network": "Фора", "lon": 30.492513, "lat": 50.465575 }, "geometry": { "type": "Point", "coordinates": [ 30.492513, 50.465575 ] } },
{ "type": "Feature", "properties": { "address": "Малишко вул., 15", "network": "Фора", "lon": 30.61984, "lat": 50.460116 }, "geometry": { "type": "Point", "coordinates": [ 30.61984, 50.460116 ] } },
{ "type": "Feature", "properties": { "address": "Маршала Жукова вул., 47", "network": "Фора", "lon": 30.631428, "lat": 50.485931 }, "geometry": { "type": "Point", "coordinates": [ 30.631428, 50.485931 ] } },
{ "type": "Feature", "properties": { "address": "Маршала Жукова вул., 55", "network": "Фора", "lon": 30.629775, "lat": 50.487868 }, "geometry": { "type": "Point", "coordinates": [ 30.629775, 50.487868 ] } },
{ "type": "Feature", "properties": { "address": "Матеюка вул., 15", "network": "Фора", "lon": 30.64078, "lat": 50.470833 }, "geometry": { "type": "Point", "coordinates": [ 30.64078, 50.470833 ] } },
{ "type": "Feature", "properties": { "address": "Маяковського просп., 63\/12", "network": "Фора", "lon": 30.613435, "lat": 50.513617 }, "geometry": { "type": "Point", "coordinates": [ 30.613435, 50.513617 ] } },
{ "type": "Feature", "properties": { "address": "Металістів вул., 13", "network": "Фора", "lon": 30.446528, "lat": 50.449128 }, "geometry": { "type": "Point", "coordinates": [ 30.446528, 50.449128 ] } },
{ "type": "Feature", "properties": { "address": "Метрологічна вул., 14Б", "network": "Фора", "lon": 30.480898, "lat": 50.339372 }, "geometry": { "type": "Point", "coordinates": [ 30.480898, 50.339372 ] } },
{ "type": "Feature", "properties": { "address": "Мілютенко вул., 12а", "network": "Фора", "lon": 30.634842, "lat": 50.470735 }, "geometry": { "type": "Point", "coordinates": [ 30.634842, 50.470735 ] } },
{ "type": "Feature", "properties": { "address": "Миропільська вул., 1", "network": "Фора", "lon": 30.62753, "lat": 50.462783 }, "geometry": { "type": "Point", "coordinates": [ 30.62753, 50.462783 ] } },
{ "type": "Feature", "properties": { "address": "Миропільська вул., 11", "network": "Фора", "lon": 30.625212, "lat": 50.465036 }, "geometry": { "type": "Point", "coordinates": [ 30.625212, 50.465036 ] } },
{ "type": "Feature", "properties": { "address": "Миропільська вул., 19", "network": "Фора", "lon": 30.624251, "lat": 50.467318 }, "geometry": { "type": "Point", "coordinates": [ 30.624251, 50.467318 ] } },
{ "type": "Feature", "properties": { "address": "Микільсько-Слобідська вул., 6\/2", "network": "Фора", "lon": 30.587393, "lat": 50.455425 }, "geometry": { "type": "Point", "coordinates": [ 30.587393, 50.455425 ] } },
{ "type": "Feature", "properties": { "address": "Новомостицька вул., 2", "network": "Фора", "lon": 30.440159, "lat": 50.500045 }, "geometry": { "type": "Point", "coordinates": [ 30.440159, 50.500045 ] } },
{ "type": "Feature", "properties": { "address": "Новопирогівська вул., 31", "network": "Фора", "lon": 30.556248, "lat": 50.364558 }, "geometry": { "type": "Point", "coordinates": [ 30.556248, 50.364558 ] } },
{ "type": "Feature", "properties": { "address": "Науки просп., 24", "network": "Фора", "lon": 30.529236, "lat": 50.399056 }, "geometry": { "type": "Point", "coordinates": [ 30.529236, 50.399056 ] } },
{ "type": "Feature", "properties": { "address": "Науки просп., 88", "network": "Фора", "lon": 30.54272, "lat": 50.372636 }, "geometry": { "type": "Point", "coordinates": [ 30.54272, 50.372636 ] } },
{ "type": "Feature", "properties": { "address": "П.Запорожця вул., 21", "network": "Фора", "lon": 30.605206, "lat": 50.480297 }, "geometry": { "type": "Point", "coordinates": [ 30.605206, 50.480297 ] } },
{ "type": "Feature", "properties": { "address": "Перова бул., 14", "network": "Фора", "lon": 30.597436, "lat": 50.474364 }, "geometry": { "type": "Point", "coordinates": [ 30.597436, 50.474364 ] } },
{ "type": "Feature", "properties": { "address": "Перова бул., 20", "network": "Фора", "lon": 30.596035, "lat": 50.477855 }, "geometry": { "type": "Point", "coordinates": [ 30.596035, 50.477855 ] } },
{ "type": "Feature", "properties": { "address": "Перова бул., 23б", "network": "Фора", "lon": 30.590519, "lat": 50.488155 }, "geometry": { "type": "Point", "coordinates": [ 30.590519, 50.488155 ] } },
{ "type": "Feature", "properties": { "address": "Перова бул., 32", "network": "Фора", "lon": 30.594301, "lat": 50.482813 }, "geometry": { "type": "Point", "coordinates": [ 30.594301, 50.482813 ] } },
{ "type": "Feature", "properties": { "address": "Перова бул., 44", "network": "Фора", "lon": 30.592208, "lat": 50.48902 }, "geometry": { "type": "Point", "coordinates": [ 30.592208, 50.48902 ] } },
{ "type": "Feature", "properties": { "address": "Печенізька вул., 1\/7А", "network": "Фора", "lon": 30.489243, "lat": 50.469147 }, "geometry": { "type": "Point", "coordinates": [ 30.489243, 50.469147 ] } },
{ "type": "Feature", "properties": { "address": "Північна вул., 46", "network": "Фора", "lon": 30.511575, "lat": 50.524939 }, "geometry": { "type": "Point", "coordinates": [ 30.511575, 50.524939 ] } },
{ "type": "Feature", "properties": { "address": "Праці бул., 2\/27", "network": "Фора", "lon": 30.620783, "lat": 50.452741 }, "geometry": { "type": "Point", "coordinates": [ 30.620783, 50.452741 ] } },
{ "type": "Feature", "properties": { "address": "Правди просп., 94", "network": "Фора", "lon": 30.413569, "lat": 50.506754 }, "geometry": { "type": "Point", "coordinates": [ 30.413569, 50.506754 ] } },
{ "type": "Feature", "properties": { "address": "Ревуцького вул., 6", "network": "Фора", "lon": 30.642729, "lat": 50.415619 }, "geometry": { "type": "Point", "coordinates": [ 30.642729, 50.415619 ] } },
{ "type": "Feature", "properties": { "address": "Ревуцького вул., 26", "network": "Фора", "lon": 30.646852, "lat": 50.408851 }, "geometry": { "type": "Point", "coordinates": [ 30.646852, 50.408851 ] } },
{ "type": "Feature", "properties": { "address": "Р.Ролана бульв., 7", "network": "Фора", "lon": 30.368797, "lat": 50.432342 }, "geometry": { "type": "Point", "coordinates": [ 30.368797, 50.432342 ] } },
{ "type": "Feature", "properties": { "address": "Сабурова вул., 13", "network": "Фора", "lon": 30.609402, "lat": 50.513817 }, "geometry": { "type": "Point", "coordinates": [ 30.609402, 50.513817 ] } },
{ "type": "Feature", "properties": { "address": "Саратівська вул., 6а", "network": "Фора", "lon": 30.415078, "lat": 50.467381 }, "geometry": { "type": "Point", "coordinates": [ 30.415078, 50.467381 ] } },
{ "type": "Feature", "properties": { "address": "Світлицького вул., 23", "network": "Фора", "lon": 30.431616, "lat": 50.511887 }, "geometry": { "type": "Point", "coordinates": [ 30.431616, 50.511887 ] } },
{ "type": "Feature", "properties": { "address": "Світлицького вул., 26б", "network": "Фора", "lon": 30.428382, "lat": 50.514745 }, "geometry": { "type": "Point", "coordinates": [ 30.428382, 50.514745 ] } },
{ "type": "Feature", "properties": { "address": "Святошинська вул., 16\/1", "network": "Фора", "lon": 30.387805, "lat": 50.452552 }, "geometry": { "type": "Point", "coordinates": [ 30.387805, 50.452552 ] } },
{ "type": "Feature", "properties": { "address": "Симиренка вул., 17а", "network": "Фора", "lon": 30.40402, "lat": 50.408553 }, "geometry": { "type": "Point", "coordinates": [ 30.40402, 50.408553 ] } },
{ "type": "Feature", "properties": { "address": "Солом’янська вул., 40\/4", "network": "Фора", "lon": 30.49201, "lat": 50.41846 }, "geometry": { "type": "Point", "coordinates": [ 30.49201, 50.41846 ] } },
{ "type": "Feature", "properties": { "address": "Тампере вул., 12", "network": "Фора", "lon": 30.613785, "lat": 50.443019 }, "geometry": { "type": "Point", "coordinates": [ 30.613785, 50.443019 ] } },
{ "type": "Feature", "properties": { "address": "Татарська вул., 3\/2", "network": "Фора", "lon": 30.485793, "lat": 50.464572 }, "geometry": { "type": "Point", "coordinates": [ 30.485793, 50.464572 ] } },
{ "type": "Feature", "properties": { "address": "Тимошенко вул., 19", "network": "Фора", "lon": 30.496268, "lat": 50.514029 }, "geometry": { "type": "Point", "coordinates": [ 30.496268, 50.514029 ] } },
{ "type": "Feature", "properties": { "address": "Тростянецька вул., 4\/2", "network": "Фора", "lon": 30.649215, "lat": 50.414557 }, "geometry": { "type": "Point", "coordinates": [ 30.649215, 50.414557 ] } },
{ "type": "Feature", "properties": { "address": "Тростянецька вул., 6Г", "network": "Фора", "lon": 30.652718, "lat": 50.414511 }, "geometry": { "type": "Point", "coordinates": [ 30.652718, 50.414511 ] } },
{ "type": "Feature", "properties": { "address": "Туполєва вул., 24", "network": "Фора", "lon": 30.396231, "lat": 50.480675 }, "geometry": { "type": "Point", "coordinates": [ 30.396231, 50.480675 ] } },
{ "type": "Feature", "properties": { "address": "Туполєва вул., 16", "network": "Фора", "lon": 30.396483, "lat": 50.47531 }, "geometry": { "type": "Point", "coordinates": [ 30.396483, 50.47531 ] } },
{ "type": "Feature", "properties": { "address": "Тичини пр, 7", "network": "Фора", "lon": 30.600948, "lat": 50.428164 }, "geometry": { "type": "Point", "coordinates": [ 30.600948, 50.428164 ] } },
{ "type": "Feature", "properties": { "address": "Тулузи вул., 15", "network": "Фора", "lon": 30.378058, "lat": 50.432451 }, "geometry": { "type": "Point", "coordinates": [ 30.378058, 50.432451 ] } },
{ "type": "Feature", "properties": { "address": "Уборевича Командарма вул., 8а", "network": "Фора", "lon": 30.352277, "lat": 50.465093 }, "geometry": { "type": "Point", "coordinates": [ 30.352277, 50.465093 ] } },
{ "type": "Feature", "properties": { "address": "Урлівська вул., 4а", "network": "Фора", "lon": 30.625086, "lat": 50.403162 }, "geometry": { "type": "Point", "coordinates": [ 30.625086, 50.403162 ] } },
{ "type": "Feature", "properties": { "address": "Харківське шосе, 172", "network": "Фора", "lon": 30.664711, "lat": 50.412249 }, "geometry": { "type": "Point", "coordinates": [ 30.664711, 50.412249 ] } },
{ "type": "Feature", "properties": { "address": "Харківське шосе, 8", "network": "Фора", "lon": 30.62859, "lat": 50.438636 }, "geometry": { "type": "Point", "coordinates": [ 30.62859, 50.438636 ] } },
{ "type": "Feature", "properties": { "address": "Харківське шосе, 9", "network": "Фора", "lon": 30.630835, "lat": 50.437236 }, "geometry": { "type": "Point", "coordinates": [ 30.630835, 50.437236 ] } },
{ "type": "Feature", "properties": { "address": "Цвітаєвої вул., 18\/78", "network": "Фора", "lon": 30.610237, "lat": 50.524189 }, "geometry": { "type": "Point", "coordinates": [ 30.610237, 50.524189 ] } },
{ "type": "Feature", "properties": { "address": "Центральна вул., 12а", "network": "Фора", "lon": 30.605727, "lat": 50.391896 }, "geometry": { "type": "Point", "coordinates": [ 30.605727, 50.391896 ] } },
{ "type": "Feature", "properties": { "address": "Червоноткацька вул., 33\/10", "network": "Фора", "lon": 30.627584, "lat": 50.454204 }, "geometry": { "type": "Point", "coordinates": [ 30.627584, 50.454204 ] } },
{ "type": "Feature", "properties": { "address": "Шамрило вул., 12", "network": "Фора", "lon": 30.434239, "lat": 50.463 }, "geometry": { "type": "Point", "coordinates": [ 30.434239, 50.463 ] } },
{ "type": "Feature", "properties": { "address": "Шолуденко вул., 16", "network": "Фора", "lon": 30.479101, "lat": 50.454421 }, "geometry": { "type": "Point", "coordinates": [ 30.479101, 50.454421 ] } },
{ "type": "Feature", "properties": { "address": "Щербакова вул., 68", "network": "Фора", "lon": 30.40623, "lat": 50.478113 }, "geometry": { "type": "Point", "coordinates": [ 30.40623, 50.478113 ] } },
{ "type": "Feature", "properties": { "address": "Якуба Коласа вул., 25", "network": "Фора", "lon": 30.382784, "lat": 50.437133 }, "geometry": { "type": "Point", "coordinates": [ 30.382784, 50.437133 ] } },
{ "type": "Feature", "properties": { "address": "Якіра вул., 14", "network": "Фора", "lon": 30.469049, "lat": 50.465747 }, "geometry": { "type": "Point", "coordinates": [ 30.469049, 50.465747 ] } },
{ "type": "Feature", "properties": { "address": "Ялтинська вул., 6", "network": "Фора", "lon": 30.65147, "lat": 50.430058 }, "geometry": { "type": "Point", "coordinates": [ 30.65147, 50.430058 ] } },
{ "type": "Feature", "properties": { "address": "вул. Архипенка Олександра, 6", "network": "Сільпо", "lon": 30.512312, "lat": 50.495278 }, "geometry": { "type": "Point", "coordinates": [ 30.512312, 50.495278 ] } },
{ "type": "Feature", "properties": { "address": "вул. Бережанська, 22", "network": "Сільпо", "lon": 30.458359, "lat": 50.518456 }, "geometry": { "type": "Point", "coordinates": [ 30.458359, 50.518456 ] } },
{ "type": "Feature", "properties": { "address": "вул. Білоруська, 2", "network": "Сільпо", "lon": 30.481347, "lat": 50.462037 }, "geometry": { "type": "Point", "coordinates": [ 30.481347, 50.462037 ] } },
{ "type": "Feature", "properties": { "address": "вул. Борщагівська, 154a", "network": "Сільпо", "lon": 30.443564, "lat": 50.446455 }, "geometry": { "type": "Point", "coordinates": [ 30.443564, 50.446455 ] } },
{ "type": "Feature", "properties": { "address": "вул. Булгакова, 11а", "network": "Сільпо", "lon": 30.40481, "lat": 50.411216 }, "geometry": { "type": "Point", "coordinates": [ 30.40481, 50.411216 ] } },
{ "type": "Feature", "properties": { "address": "вул. Вербицького Архітектора, 1а", "network": "Сільпо", "lon": 30.651685, "lat": 50.413633 }, "geometry": { "type": "Point", "coordinates": [ 30.651685, 50.413633 ] } },
{ "type": "Feature", "properties": { "address": "просп. Героїв Сталінграда, 46", "network": "Сільпо", "lon": 30.514477, "lat": 50.520197 }, "geometry": { "type": "Point", "coordinates": [ 30.514477, 50.520197 ] } },
{ "type": "Feature", "properties": { "address": "просп. Героїв Сталінграда, 8а", "network": "Сільпо", "lon": 30.517782, "lat": 50.498263 }, "geometry": { "type": "Point", "coordinates": [ 30.517782, 50.498263 ] } },
{ "type": "Feature", "properties": { "address": "вул. Гончара Олеся, 96", "network": "Сільпо", "lon": 30.494678, "lat": 50.447453 }, "geometry": { "type": "Point", "coordinates": [ 30.494678, 50.447453 ] } },
{ "type": "Feature", "properties": { "address": "просп. Григоренка, 23", "network": "Сільпо", "lon": 30.631743, "lat": 50.405315 }, "geometry": { "type": "Point", "coordinates": [ 30.631743, 50.405315 ] } },
{ "type": "Feature", "properties": { "address": "бул. Дарницький, 8а", "network": "Сільпо", "lon": 30.610695, "lat": 50.464549 }, "geometry": { "type": "Point", "coordinates": [ 30.610695, 50.464549 ] } },
{ "type": "Feature", "properties": { "address": "наб. Дніпровська, 33", "network": "Сільпо", "lon": 30.616687, "lat": 50.399269 }, "geometry": { "type": "Point", "coordinates": [ 30.616687, 50.399269 ] } },
{ "type": "Feature", "properties": { "address": "вул. Дорогожицька, 2", "network": "Сільпо", "lon": 30.461755, "lat": 50.470615 }, "geometry": { "type": "Point", "coordinates": [ 30.461755, 50.470615 ] } },
{ "type": "Feature", "properties": { "address": "вул. Драгомирова Михайла, 16", "network": "Сільпо", "lon": 30.545558, "lat": 50.410699 }, "geometry": { "type": "Point", "coordinates": [ 30.545558, 50.410699 ] } },
{ "type": "Feature", "properties": { "address": "вул. Драйзера Теодора, 21", "network": "Сільпо", "lon": 30.595657, "lat": 50.509807 }, "geometry": { "type": "Point", "coordinates": [ 30.595657, 50.509807 ] } },
{ "type": "Feature", "properties": { "address": "вул. Драйзера Теодора, 8", "network": "Сільпо", "lon": 30.605233, "lat": 50.502549 }, "geometry": { "type": "Point", "coordinates": [ 30.605233, 50.502549 ] } },
{ "type": "Feature", "properties": { "address": "вул. Закревського Миколи, 61\/2", "network": "Сільпо", "lon": 30.623038, "lat": 50.513107 }, "geometry": { "type": "Point", "coordinates": [ 30.623038, 50.513107 ] } },
{ "type": "Feature", "properties": { "address": "вул. Западинська, 15", "network": "Сільпо", "lon": 30.441327, "lat": 50.507 }, "geometry": { "type": "Point", "coordinates": [ 30.441327, 50.507 ] } },
{ "type": "Feature", "properties": { "address": "вул. Здолбунівська, 4", "network": "Сільпо", "lon": 30.618358, "lat": 50.417255 }, "geometry": { "type": "Point", "coordinates": [ 30.618358, 50.417255 ] } },
{ "type": "Feature", "properties": { "address": "вул. Калнишевського Петра, 2", "network": "Сільпо", "lon": 30.465563, "lat": 50.519522 }, "geometry": { "type": "Point", "coordinates": [ 30.465563, 50.519522 ] } },
{ "type": "Feature", "properties": { "address": "пров. Карельський, 3", "network": "Сільпо", "lon": 30.632372, "lat": 50.451399 }, "geometry": { "type": "Point", "coordinates": [ 30.632372, 50.451399 ] } },
{ "type": "Feature", "properties": { "address": "бул. Кольцова, 14м", "network": "Сільпо", "lon": 30.382963, "lat": 50.424773 }, "geometry": { "type": "Point", "coordinates": [ 30.382963, 50.424773 ] } },
{ "type": "Feature", "properties": { "address": "вул. Конєва, 7", "network": "Сільпо", "lon": 30.458125, "lat": 50.384269 }, "geometry": { "type": "Point", "coordinates": [ 30.458125, 50.384269 ] } },
{ "type": "Feature", "properties": { "address": "вул. Коновальця Євгена, 26а", "network": "Сільпо", "lon": 30.530503, "lat": 50.427292 }, "geometry": { "type": "Point", "coordinates": [ 30.530503, 50.427292 ] } },
{ "type": "Feature", "properties": { "address": "просп. Курбаса Леся, 15а", "network": "Сільпо", "lon": 30.372246, "lat": 50.42467 }, "geometry": { "type": "Point", "coordinates": [ 30.372246, 50.42467 ] } },
{ "type": "Feature", "properties": { "address": "вул. Лаврухіна, 4", "network": "Сільпо", "lon": 30.601757, "lat": 50.516383 }, "geometry": { "type": "Point", "coordinates": [ 30.601757, 50.516383 ] } },
{ "type": "Feature", "properties": { "address": "просп. Лісовий, 39", "network": "Сільпо", "lon": 30.639441, "lat": 50.484808 }, "geometry": { "type": "Point", "coordinates": [ 30.639441, 50.484808 ] } },
{ "type": "Feature", "properties": { "address": "вул. Малевича, 107", "network": "Сільпо", "lon": 30.519004, "lat": 50.416508 }, "geometry": { "type": "Point", "coordinates": [ 30.519004, 50.416508 ] } },
{ "type": "Feature", "properties": { "address": "вул. Малиновського, 34", "network": "Сільпо", "lon": 30.507191, "lat": 50.503351 }, "geometry": { "type": "Point", "coordinates": [ 30.507191, 50.503351 ] } },
{ "type": "Feature", "properties": { "address": "вул. Малиновського, 5", "network": "Сільпо", "lon": 30.490986, "lat": 50.505282 }, "geometry": { "type": "Point", "coordinates": [ 30.490986, 50.505282 ] } },
{ "type": "Feature", "properties": { "address": "просп. Маяковського, 43\/2", "network": "Сільпо", "lon": 30.607246, "lat": 50.508553 }, "geometry": { "type": "Point", "coordinates": [ 30.607246, 50.508553 ] } },
{ "type": "Feature", "properties": { "address": "просп. Маяковського, 75\/2", "network": "Сільпо", "lon": 30.616696, "lat": 50.517391 }, "geometry": { "type": "Point", "coordinates": [ 30.616696, 50.517391 ] } },
{ "type": "Feature", "properties": { "address": "вул. Милославська, 10а", "network": "Сільпо", "lon": 30.600445, "lat": 50.533557 }, "geometry": { "type": "Point", "coordinates": [ 30.600445, 50.533557 ] } },
{ "type": "Feature", "properties": { "address": "вул. Мишуги Олександра, 4", "network": "Сільпо", "lon": 30.638273, "lat": 50.397696 }, "geometry": { "type": "Point", "coordinates": [ 30.638273, 50.397696 ] } },
{ "type": "Feature", "properties": { "address": "шосе Мінське, 4а", "network": "Сільпо", "lon": 30.451702, "lat": 50.522631 }, "geometry": { "type": "Point", "coordinates": [ 30.451702, 50.522631 ] } },
{ "type": "Feature", "properties": { "address": "просп. Оболонський, 36б", "network": "Сільпо", "lon": 30.501792, "lat": 50.519081 }, "geometry": { "type": "Point", "coordinates": [ 30.501792, 50.519081 ] } },
{ "type": "Feature", "properties": { "address": "вул. Оленівська, 3", "network": "Сільпо", "lon": 30.502385, "lat": 50.471452 }, "geometry": { "type": "Point", "coordinates": [ 30.502385, 50.471452 ] } },
{ "type": "Feature", "properties": { "address": "просп. Перемоги, 47", "network": "Сільпо", "lon": 30.447283, "lat": 50.45316 }, "geometry": { "type": "Point", "coordinates": [ 30.447283, 50.45316 ] } },
{ "type": "Feature", "properties": { "address": "просп. Перемоги, 87", "network": "Сільпо", "lon": 30.383439, "lat": 50.456687 }, "geometry": { "type": "Point", "coordinates": [ 30.383439, 50.456687 ] } },
{ "type": "Feature", "properties": { "address": "вул. Північна, 6в", "network": "Сільпо", "lon": 30.503625, "lat": 50.524928 }, "geometry": { "type": "Point", "coordinates": [ 30.503625, 50.524928 ] } },
{ "type": "Feature", "properties": { "address": "вул. Підлісна, 1", "network": "Сільпо", "lon": 30.337491, "lat": 50.472163 }, "geometry": { "type": "Point", "coordinates": [ 30.337491, 50.472163 ] } },
{ "type": "Feature", "properties": { "address": "вул. Полярна, 20д", "network": "Сільпо", "lon": 30.479802, "lat": 50.520226 }, "geometry": { "type": "Point", "coordinates": [ 30.479802, 50.520226 ] } },
{ "type": "Feature", "properties": { "address": "просп. Порика Василя, 5", "network": "Сільпо", "lon": 30.419597, "lat": 50.510707 }, "geometry": { "type": "Point", "coordinates": [ 30.419597, 50.510707 ] } },
{ "type": "Feature", "properties": { "address": "просп. Правди, 58", "network": "Сільпо", "lon": 30.436835, "lat": 50.504697 }, "geometry": { "type": "Point", "coordinates": [ 30.436835, 50.504697 ] } },
{ "type": "Feature", "properties": { "address": "просп. Правди, 66", "network": "Сільпо", "lon": 30.428553, "lat": 50.50468 }, "geometry": { "type": "Point", "coordinates": [ 30.428553, 50.50468 ] } },
{ "type": "Feature", "properties": { "address": "вул. Райдужна, 8", "network": "Сільпо", "lon": 30.583288, "lat": 50.491576 }, "geometry": { "type": "Point", "coordinates": [ 30.583288, 50.491576 ] } },
{ "type": "Feature", "properties": { "address": "вул. Сагайдачного, 41", "network": "Сільпо", "lon": 30.519013, "lat": 50.462421 }, "geometry": { "type": "Point", "coordinates": [ 30.519013, 50.462421 ] } },
{ "type": "Feature", "properties": { "address": "вул. Січових Стрільців, 37\/41", "network": "Сільпо", "lon": 30.496798, "lat": 50.456056 }, "geometry": { "type": "Point", "coordinates": [ 30.496798, 50.456056 ] } },
{ "type": "Feature", "properties": { "address": "вул. Скляренка Семена, 17", "network": "Сільпо", "lon": 30.462554, "lat": 50.496567 }, "geometry": { "type": "Point", "coordinates": [ 30.462554, 50.496567 ] } },
{ "type": "Feature", "properties": { "address": "пл. Спортивна, 1а", "network": "Сільпо", "lon": 30.523343, "lat": 50.438676 }, "geometry": { "type": "Point", "coordinates": [ 30.523343, 50.438676 ] } },
{ "type": "Feature", "properties": { "address": "вул. Срібнокільська, 3", "network": "Сільпо", "lon": 30.631204, "lat": 50.400664 }, "geometry": { "type": "Point", "coordinates": [ 30.631204, 50.400664 ] } },
{ "type": "Feature", "properties": { "address": "вул. Стальського, 22\/10", "network": "Сільпо", "lon": 30.604524, "lat": 50.484728 }, "geometry": { "type": "Point", "coordinates": [ 30.604524, 50.484728 ] } },
{ "type": "Feature", "properties": { "address": "вул. Суворова, 4", "network": "Сільпо", "lon": 30.547741, "lat": 50.439077 }, "geometry": { "type": "Point", "coordinates": [ 30.547741, 50.439077 ] } },
{ "type": "Feature", "properties": { "address": "просп. Тичини Павла, 1в", "network": "Сільпо", "lon": 30.593672, "lat": 50.428457 }, "geometry": { "type": "Point", "coordinates": [ 30.593672, 50.428457 ] } },
{ "type": "Feature", "properties": { "address": "вул. Філатова Академіка, 7", "network": "Сільпо", "lon": 30.531868, "lat": 50.416118 }, "geometry": { "type": "Point", "coordinates": [ 30.531868, 50.416118 ] } },
{ "type": "Feature", "properties": { "address": "шосе Харківське, 144б", "network": "Сільпо", "lon": 30.649952, "lat": 50.421353 }, "geometry": { "type": "Point", "coordinates": [ 30.649952, 50.421353 ] } },
{ "type": "Feature", "properties": { "address": "шосе Харківське, 168", "network": "Сільпо", "lon": 30.661773, "lat": 50.414195 }, "geometry": { "type": "Point", "coordinates": [ 30.661773, 50.414195 ] } },
{ "type": "Feature", "properties": { "address": "шосе Харківське, 21", "network": "Сільпо", "lon": 30.639585, "lat": 50.426736 }, "geometry": { "type": "Point", "coordinates": [ 30.639585, 50.426736 ] } },
{ "type": "Feature", "properties": { "address": "бул. Чоколівський, 28\/1", "network": "Сільпо", "lon": 30.455574, "lat": 50.432095 }, "geometry": { "type": "Point", "coordinates": [ 30.455574, 50.432095 ] } },
{ "type": "Feature", "properties": { "address": "бул. Чоколівський, 6", "network": "Сільпо", "lon": 30.459069, "lat": 50.427028 }, "geometry": { "type": "Point", "coordinates": [ 30.459069, 50.427028 ] } },
{ "type": "Feature", "properties": { "address": "вул. Чорнобильська, 3", "network": "Сільпо", "lon": 30.345791, "lat": 50.455867 }, "geometry": { "type": "Point", "coordinates": [ 30.345791, 50.455867 ] } },
{ "type": "Feature", "properties": { "address": "вул. Шептицького, 4", "network": "Сільпо", "lon": 30.597993, "lat": 50.453498 }, "geometry": { "type": "Point", "coordinates": [ 30.597993, 50.453498 ] } },
{ "type": "Feature", "properties": { "address": "вул. Щербаківського Данила, 56", "network": "Сільпо", "lon": 30.406248, "lat": 50.472667 }, "geometry": { "type": "Point", "coordinates": [ 30.406248, 50.472667 ] } },
{ "type": "Feature", "properties": { "address": "вул. Юри Гната, 20", "network": "Сільпо", "lon": 30.383619, "lat": 50.431286 }, "geometry": { "type": "Point", "coordinates": [ 30.383619, 50.431286 ] } },
{ "type": "Feature", "properties": { "address": "вул. Якутська, 8", "network": "Сільпо", "lon": 30.407074, "lat": 50.417209 }, "geometry": { "type": "Point", "coordinates": [ 30.407074, 50.417209 ] } },
{ "type": "Feature", "properties": { "address": "бул. Івана Лепсе, 79", "network": "АТБ", "lon": 30.417252, "lat": 50.427832 }, "geometry": { "type": "Point", "coordinates": [ 30.417252, 50.427832 ] } },
{ "type": "Feature", "properties": { "address": "вул. Щербакова, 53", "network": "АТБ", "lon": 30.405188, "lat": 50.47578 }, "geometry": { "type": "Point", "coordinates": [ 30.405188, 50.47578 ] } },
{ "type": "Feature", "properties": { "address": "пр. Леся Курбаса, 2\/13", "network": "АТБ", "lon": 30.389593, "lat": 50.430861 }, "geometry": { "type": "Point", "coordinates": [ 30.389593, 50.430861 ] } },
{ "type": "Feature", "properties": { "address": "вул. Каштанова, 7", "network": "АТБ", "lon": 30.585578, "lat": 50.500864 }, "geometry": { "type": "Point", "coordinates": [ 30.585578, 50.500864 ] } },
{ "type": "Feature", "properties": { "address": "вул. Російська, 33", "network": "АТБ", "lon": 30.660866, "lat": 50.425674 }, "geometry": { "type": "Point", "coordinates": [ 30.660866, 50.425674 ] } },
{ "type": "Feature", "properties": { "address": "вул.Шолом-Алейхема, 17", "network": "АТБ", "lon": 30.636189, "lat": 50.474117 }, "geometry": { "type": "Point", "coordinates": [ 30.636189, 50.474117 ] } },
{ "type": "Feature", "properties": { "address": "вул. Шолом-Алейхема, 4", "network": "АТБ", "lon": 30.625607, "lat": 50.470225 }, "geometry": { "type": "Point", "coordinates": [ 30.625607, 50.470225 ] } },
{ "type": "Feature", "properties": { "address": "пр. Маяковського, 60\/10", "network": "АТБ", "lon": 30.620631, "lat": 50.524057 }, "geometry": { "type": "Point", "coordinates": [ 30.620631, 50.524057 ] } },
{ "type": "Feature", "properties": { "address": "вул. Ревуцького, 33", "network": "АТБ", "lon": 30.65023, "lat": 50.406583 }, "geometry": { "type": "Point", "coordinates": [ 30.65023, 50.406583 ] } },
{ "type": "Feature", "properties": { "address": "вул. Полярна,15", "network": "АТБ", "lon": 30.462832, "lat": 50.518474 }, "geometry": { "type": "Point", "coordinates": [ 30.462832, 50.518474 ] } },
{ "type": "Feature", "properties": { "address": "пр-т Тичини, 7", "network": "АТБ", "lon": 30.600948, "lat": 50.428164 }, "geometry": { "type": "Point", "coordinates": [ 30.600948, 50.428164 ] } },
{ "type": "Feature", "properties": { "address": "пров. Квітневий, 9", "network": "АТБ", "lon": 30.434338, "lat": 50.501747 }, "geometry": { "type": "Point", "coordinates": [ 30.434338, 50.501747 ] } },
{ "type": "Feature", "properties": { "address": "вул. Сабурова, 3", "network": "АТБ", "lon": 30.617064, "lat": 50.510546 }, "geometry": { "type": "Point", "coordinates": [ 30.617064, 50.510546 ] } },
{ "type": "Feature", "properties": { "address": "вул. Богатирська, 2", "network": "АТБ", "lon": 30.48582, "lat": 50.514991 }, "geometry": { "type": "Point", "coordinates": [ 30.48582, 50.514991 ] } },
{ "type": "Feature", "properties": { "address": "бул. Русанівський, 11", "network": "АТБ", "lon": 30.596017, "lat": 50.438894 }, "geometry": { "type": "Point", "coordinates": [ 30.596017, 50.438894 ] } },
{ "type": "Feature", "properties": { "address": "вул. Академіка Туполєва, 15", "network": "АТБ", "lon": 30.395064, "lat": 50.483896 }, "geometry": { "type": "Point", "coordinates": [ 30.395064, 50.483896 ] } },
{ "type": "Feature", "properties": { "address": "вул. Декабристів, 2", "network": "АТБ", "lon": 30.655099, "lat": 50.407485 }, "geometry": { "type": "Point", "coordinates": [ 30.655099, 50.407485 ] } },
{ "type": "Feature", "properties": { "address": "вул. Вишгородська, 44", "network": "АТБ", "lon": 30.450481, "lat": 50.513869 }, "geometry": { "type": "Point", "coordinates": [ 30.450481, 50.513869 ] } },
{ "type": "Feature", "properties": { "address": "вул. М. Закревського, 21", "network": "АТБ", "lon": 30.6012225, "lat": 50.4981509 }, "geometry": { "type": "Point", "coordinates": [ 30.6012225, 50.4981509 ] } },
{ "type": "Feature", "properties": { "address": "вул. Ванди Василевської, 6", "network": "АТБ", "lon": 30.468672, "lat": 50.452798 }, "geometry": { "type": "Point", "coordinates": [ 30.468672, 50.452798 ] } },
{ "type": "Feature", "properties": { "address": "пр. Відрадний, 10", "network": "АТБ", "lon": 30.431634, "lat": 50.431584 }, "geometry": { "type": "Point", "coordinates": [ 30.431634, 50.431584 ] } },
{ "type": "Feature", "properties": { "address": "вул. Солом'янська, 39", "network": "АТБ", "lon": 30.490465, "lat": 50.421353 }, "geometry": { "type": "Point", "coordinates": [ 30.490465, 50.421353 ] } },
{ "type": "Feature", "properties": { "address": "вул. Героїв Дніпра, 40", "network": "АТБ", "lon": 30.50879, "lat": 50.522127 }, "geometry": { "type": "Point", "coordinates": [ 30.50879, 50.522127 ] } },
{ "type": "Feature", "properties": { "address": "вул. Тулузи, 3 б", "network": "АТБ", "lon": 30.367584, "lat": 50.430873 }, "geometry": { "type": "Point", "coordinates": [ 30.367584, 50.430873 ] } },
{ "type": "Feature", "properties": { "address": "вул. Дніпровська Набережна, 25а", "network": "АТБ", "lon": 30.614369, "lat": 50.405544 }, "geometry": { "type": "Point", "coordinates": [ 30.614369, 50.405544 ] } },
{ "type": "Feature", "properties": { "address": "вул. Фрунзе, 127", "network": "АТБ", "lon": 30.461018, "lat": 50.493542 }, "geometry": { "type": "Point", "coordinates": [ 30.461018, 50.493542 ] } },
{ "type": "Feature", "properties": { "address": "вул. Маршала Тимошенка, 29 б", "network": "АТБ", "lon": 30.504748, "lat": 50.512878 }, "geometry": { "type": "Point", "coordinates": [ 30.504748, 50.512878 ] } },
{ "type": "Feature", "properties": { "address": "вул. Харківське шосе, 152 а", "network": "АТБ", "lon": 30.654183, "lat": 50.417765 }, "geometry": { "type": "Point", "coordinates": [ 30.654183, 50.417765 ] } },
{ "type": "Feature", "properties": { "address": "вул. Ревуцького, 15", "network": "АТБ", "lon": 30.644283, "lat": 50.41648 }, "geometry": { "type": "Point", "coordinates": [ 30.644283, 50.41648 ] } },
{ "type": "Feature", "properties": { "address": "вул. М. Закревського, 29", "network": "АТБ", "lon": 30.607563, "lat": 50.5009524 }, "geometry": { "type": "Point", "coordinates": [ 30.607563, 50.5009524 ] } },
{ "type": "Feature", "properties": { "address": "вул. М. Василенка, 6", "network": "АТБ", "lon": 30.4184111, "lat": 50.4456109 }, "geometry": { "type": "Point", "coordinates": [ 30.4184111, 50.4456109 ] } },
{ "type": "Feature", "properties": { "address": "бул. Чоколівський, 23", "network": "АТБ", "lon": 30.454146, "lat": 50.432755 }, "geometry": { "type": "Point", "coordinates": [ 30.454146, 50.432755 ] } },
{ "type": "Feature", "properties": { "address": "вул. Багговутівська, 3\/15", "network": "АТБ", "lon": 30.473334, "lat": 50.4714 }, "geometry": { "type": "Point", "coordinates": [ 30.473334, 50.4714 ] } },
{ "type": "Feature", "properties": { "address": "вул. Щербакова, 61", "network": "АТБ", "lon": 30.405179, "lat": 50.479546 }, "geometry": { "type": "Point", "coordinates": [ 30.405179, 50.479546 ] } },
{ "type": "Feature", "properties": { "address": "вул. Фрунзе, 115\/2", "network": "АТБ", "lon": 30.468249, "lat": 50.488235 }, "geometry": { "type": "Point", "coordinates": [ 30.468249, 50.488235 ] } },
{ "type": "Feature", "properties": { "address": "вул. Академіка Курчатова, 8 а", "network": "АТБ", "lon": 30.624835, "lat": 50.474719 }, "geometry": { "type": "Point", "coordinates": [ 30.624835, 50.474719 ] } },
{ "type": "Feature", "properties": { "address": "вул. Симиренка, 17 а", "network": "АТБ", "lon": 30.40402, "lat": 50.408553 }, "geometry": { "type": "Point", "coordinates": [ 30.40402, 50.408553 ] } },
{ "type": "Feature", "properties": { "address": "пр. Юрія Гагаріна, 12", "network": "АТБ", "lon": 30.628904, "lat": 50.44739 }, "geometry": { "type": "Point", "coordinates": [ 30.628904, 50.44739 ] } },
{ "type": "Feature", "properties": { "address": "пр. Лісовий, 28", "network": "АТБ", "lon": 30.63371, "lat": 50.482143 }, "geometry": { "type": "Point", "coordinates": [ 30.63371, 50.482143 ] } },
{ "type": "Feature", "properties": { "address": "вул. Бурмістенка, 11", "network": "АТБ", "lon": 30.496771, "lat": 50.393044 }, "geometry": { "type": "Point", "coordinates": [ 30.496771, 50.393044 ] } },
{ "type": "Feature", "properties": { "address": "вул. 40 років Жовтня, 128", "network": "АТБ", "lon": 30.4778733, "lat": 50.3827677 }, "geometry": { "type": "Point", "coordinates": [ 30.4778733, 50.3827677 ] } },
{ "type": "Feature", "properties": { "address": "вул. Половецька, 14", "network": "АТБ", "lon": 30.483808, "lat": 50.469067 }, "geometry": { "type": "Point", "coordinates": [ 30.483808, 50.469067 ] } },
{ "type": "Feature", "properties": { "address": "вул. Курнатовського, 11", "network": "АТБ", "lon": 30.603212, "lat": 50.484275 }, "geometry": { "type": "Point", "coordinates": [ 30.603212, 50.484275 ] } },
{ "type": "Feature", "properties": { "address": "бул. Кольцова, 14", "network": "АТБ", "lon": 30.379595, "lat": 50.422179 }, "geometry": { "type": "Point", "coordinates": [ 30.379595, 50.422179 ] } },
{ "type": "Feature", "properties": { "address": "вул. Заболотного, 20 а", "network": "АТБ", "lon": 30.462302, "lat": 50.365937 }, "geometry": { "type": "Point", "coordinates": [ 30.462302, 50.365937 ] } },
{ "type": "Feature", "properties": { "address": "вул. Героїв Севастополя, 10", "network": "АТБ", "lon": 30.415024, "lat": 50.443397 }, "geometry": { "type": "Point", "coordinates": [ 30.415024, 50.443397 ] } },
{ "type": "Feature", "properties": { "address": "пр. Перемоги, 18", "network": "АТБ", "lon": 30.477619, "lat": 50.44973 }, "geometry": { "type": "Point", "coordinates": [ 30.477619, 50.44973 ] } },
{ "type": "Feature", "properties": { "address": "вул. Марини Цвєтаєвої\/вул. Оноре де Бальзака, 18\/78", "network": "АТБ", "lon": 30.608415, "lat": 50.5242024 }, "geometry": { "type": "Point", "coordinates": [ 30.608415, 50.5242024 ] } },
{ "type": "Feature", "properties": { "address": "вул. Мишуги, 6", "network": "АТБ", "lon": 30.63716, "lat": 50.397179 }, "geometry": { "type": "Point", "coordinates": [ 30.63716, 50.397179 ] } },
{ "type": "Feature", "properties": { "address": "Кільцева дорога, 2 з", "network": "АТБ", "lon": 30.441623, "lat": 50.383832 }, "geometry": { "type": "Point", "coordinates": [ 30.441623, 50.383832 ] } },
{ "type": "Feature", "properties": { "address": "вул. Будищанська, 7", "network": "АТБ", "lon": 30.605251, "lat": 50.528724 }, "geometry": { "type": "Point", "coordinates": [ 30.605251, 50.528724 ] } },
{ "type": "Feature", "properties": { "address": "вул. Ольжича, 2\/33", "network": "АТБ", "lon": 30.450517, "lat": 50.478205 }, "geometry": { "type": "Point", "coordinates": [ 30.450517, 50.478205 ] } },
{ "type": "Feature", "properties": { "address": "вул. Якуба Коласа, 27", "network": "АТБ", "lon": 30.38352, "lat": 50.437236 }, "geometry": { "type": "Point", "coordinates": [ 30.38352, 50.437236 ] } },
{ "type": "Feature", "properties": { "address": "вул. Центральна, 13 д", "network": "АТБ", "lon": 30.604272, "lat": 50.391425 }, "geometry": { "type": "Point", "coordinates": [ 30.604272, 50.391425 ] } },
{ "type": "Feature", "properties": { "address": "вул. Прирічна, 11", "network": "АТБ", "lon": 30.515707, "lat": 50.515541 }, "geometry": { "type": "Point", "coordinates": [ 30.515707, 50.515541 ] } },
{ "type": "Feature", "properties": { "address": "пр. Відрадний, 18", "network": "АТБ", "lon": 30.428723, "lat": 50.42708 }, "geometry": { "type": "Point", "coordinates": [ 30.428723, 50.42708 ] } },
{ "type": "Feature", "properties": { "address": "вул. Максима Кривоноса, 29", "network": "АТБ", "lon": 30.46966, "lat": 50.422368 }, "geometry": { "type": "Point", "coordinates": [ 30.46966, 50.422368 ] } },
{ "type": "Feature", "properties": { "address": "вул. Академіка Курчатова, 23", "network": "АТБ", "lon": 30.633602, "lat": 50.478824 }, "geometry": { "type": "Point", "coordinates": [ 30.633602, 50.478824 ] } },
{ "type": "Feature", "properties": { "address": "вул. Лебедєва-Кумача, 7 в", "network": "АТБ", "lon": 30.438398, "lat": 50.438888 }, "geometry": { "type": "Point", "coordinates": [ 30.438398, 50.438888 ] } },
{ "type": "Feature", "properties": { "address": "вул. Щербакова, 52", "network": "АТБ", "lon": 30.406472, "lat": 50.470626 }, "geometry": { "type": "Point", "coordinates": [ 30.406472, 50.470626 ] } },
{ "type": "Feature", "properties": { "address": "пр. В. Маяковського, 89б", "network": "АТБ", "lon": 30.619319, "lat": 50.526732 }, "geometry": { "type": "Point", "coordinates": [ 30.619319, 50.526732 ] } },
{ "type": "Feature", "properties": { "address": "вул. Здолбунівська, 7", "network": "АТБ", "lon": 30.617055, "lat": 50.41547 }, "geometry": { "type": "Point", "coordinates": [ 30.617055, 50.41547 ] } },
{ "type": "Feature", "properties": { "address": "вул. Приозерна, 2", "network": "АТБ", "lon": 30.520513, "lat": 50.493301 }, "geometry": { "type": "Point", "coordinates": [ 30.520513, 50.493301 ] } },
{ "type": "Feature", "properties": { "address": "вул. Політехнічна, 31", "network": "АТБ", "lon": 30.464521, "lat": 50.44833 }, "geometry": { "type": "Point", "coordinates": [ 30.464521, 50.44833 ] } },
{ "type": "Feature", "properties": { "address": "пр. Правди, 12 в", "network": "АТБ", "lon": 30.4398, "lat": 50.505259 }, "geometry": { "type": "Point", "coordinates": [ 30.4398, 50.505259 ] } },
{ "type": "Feature", "properties": { "address": "вул. Леніна, 39", "network": "АТБ", "lon": 30.4542, "lat": 50.392177 }, "geometry": { "type": "Point", "coordinates": [ 30.4542, 50.392177 ] } },
{ "type": "Feature", "properties": { "address": "Харківське шосе, 151", "network": "АТБ", "lon": 30.669625, "lat": 50.410562 }, "geometry": { "type": "Point", "coordinates": [ 30.669625, 50.410562 ] } },
{ "type": "Feature", "properties": { "address": "пр. Московський, 8", "network": "АТБ", "lon": 30.490528, "lat": 50.488751 }, "geometry": { "type": "Point", "coordinates": [ 30.490528, 50.488751 ] } },
{ "type": "Feature", "properties": { "address": "вул. Костянтинівська, 71", "network": "АТБ", "lon": 30.502071, "lat": 50.472598 }, "geometry": { "type": "Point", "coordinates": [ 30.502071, 50.472598 ] } },
{ "type": "Feature", "properties": { "address": "вул. Маршала Гречка, 22", "network": "АТБ", "lon": 30.406625, "lat": 50.493163 }, "geometry": { "type": "Point", "coordinates": [ 30.406625, 50.493163 ] } },
{ "type": "Feature", "properties": { "address": "вул. В. Порика, 13", "network": "АТБ", "lon": 30.417564, "lat": 50.5080524 }, "geometry": { "type": "Point", "coordinates": [ 30.417564, 50.5080524 ] } },
{ "type": "Feature", "properties": { "address": "вул. Довженка, 1в", "network": "АТБ", "lon": 30.44616, "lat": 50.456612 }, "geometry": { "type": "Point", "coordinates": [ 30.44616, 50.456612 ] } },
{ "type": "Feature", "properties": { "address": "вул.Бориспільська, 26 к", "network": "АТБ", "lon": 30.686037, "lat": 50.424951 }, "geometry": { "type": "Point", "coordinates": [ 30.686037, 50.424951 ] } },
{ "type": "Feature", "properties": { "address": "вул. Вишгородська, 22", "network": "АТБ", "lon": 30.452223, "lat": 50.504325 }, "geometry": { "type": "Point", "coordinates": [ 30.452223, 50.504325 ] } },
{ "type": "Feature", "properties": { "address": "вул. Оноре де Бальзака, 62", "network": "АТБ", "lon": 30.608836, "lat": 50.519115 }, "geometry": { "type": "Point", "coordinates": [ 30.608836, 50.519115 ] } },
{ "type": "Feature", "properties": { "address": "вул. Щусєва, 10", "network": "АТБ", "lon": 30.445288, "lat": 50.474009 }, "geometry": { "type": "Point", "coordinates": [ 30.445288, 50.474009 ] } },
{ "type": "Feature", "properties": { "address": "пр. Перемоги, 136", "network": "АТБ", "lon": 30.36541, "lat": 50.456779 }, "geometry": { "type": "Point", "coordinates": [ 30.36541, 50.456779 ] } },
{ "type": "Feature", "properties": { "address": "Харьківське шосе, 201-203", "network": "АТБ", "lon": 30.68212, "lat": 50.403696 }, "geometry": { "type": "Point", "coordinates": [ 30.68212, 50.403696 ] } },
{ "type": "Feature", "properties": { "address": "пр. Червонозоряний, 119", "network": "АТБ", "lon": 30.513309, "lat": 50.407496 }, "geometry": { "type": "Point", "coordinates": [ 30.513309, 50.407496 ] } },
{ "type": "Feature", "properties": { "address": "вул. Анни Ахматової, 9\/18 в", "network": "АТБ", "lon": 30.637303, "lat": 50.410332 }, "geometry": { "type": "Point", "coordinates": [ 30.637303, 50.410332 ] } },
{ "type": "Feature", "properties": { "address": "вул. Клавдіївська, 27 а", "network": "АТБ", "lon": 30.342638, "lat": 50.47766 }, "geometry": { "type": "Point", "coordinates": [ 30.342638, 50.47766 ] } },
{ "type": "Feature", "properties": { "address": "пр. Маршала Рокоссовського, 3\/4", "network": "АТБ", "lon": 30.457065, "lat": 50.520077 }, "geometry": { "type": "Point", "coordinates": [ 30.457065, 50.520077 ] } },
{ "type": "Feature", "properties": { "address": "вул. Ушинського, 27", "network": "АТБ", "lon": 30.44271, "lat": 50.424297 }, "geometry": { "type": "Point", "coordinates": [ 30.44271, 50.424297 ] } },
{ "type": "Feature", "properties": { "address": "м. Київ, пр. Науки, 9", "network": "АТБ", "lon": 30.528562, "lat": 50.401629 }, "geometry": { "type": "Point", "coordinates": [ 30.528562, 50.401629 ] } },
{ "type": "Feature", "properties": { "address": "м. Київ, бул. Чоколовський, 39", "network": "АТБ", "lon": 30.450768, "lat": 50.437024 }, "geometry": { "type": "Point", "coordinates": [ 30.450768, 50.437024 ] } },
{ "type": "Feature", "properties": { "address": "вул. Срібнокільська, 3 д", "network": "АТБ", "lon": 30.631509, "lat": 50.400417 }, "geometry": { "type": "Point", "coordinates": [ 30.631509, 50.400417 ] } },
{ "type": "Feature", "properties": { "address": "вул. Архітектора Ніколаєва, 7", "network": "АТБ", "lon": 30.59475, "lat": 50.507006 }, "geometry": { "type": "Point", "coordinates": [ 30.59475, 50.507006 ] } },
{ "type": "Feature", "properties": { "address": "вул. Миколи Лаврухіна, 9", "network": "АТБ", "lon": 30.598397, "lat": 50.516635 }, "geometry": { "type": "Point", "coordinates": [ 30.598397, 50.516635 ] } },
{ "type": "Feature", "properties": { "address": "вул.Ернста,4", "network": "АТБ", "lon": 30.459581, "lat": 50.416107 }, "geometry": { "type": "Point", "coordinates": [ 30.459581, 50.416107 ] } },
{ "type": "Feature", "properties": { "address": "пр. Петра Григоренка, 5а", "network": "АТБ", "lon": 30.628491, "lat": 50.412772 }, "geometry": { "type": "Point", "coordinates": [ 30.628491, 50.412772 ] } },
{ "type": "Feature", "properties": { "address": "вул. Григоровича-Барського,1", "network": "АТБ", "lon": 30.391452, "lat": 50.409523 }, "geometry": { "type": "Point", "coordinates": [ 30.391452, 50.409523 ] } },
{ "type": "Feature", "properties": { "address": "вул. Милославська, 6", "network": "АТБ", "lon": 30.603266, "lat": 50.533717 }, "geometry": { "type": "Point", "coordinates": [ 30.603266, 50.533717 ] } },
{ "type": "Feature", "properties": { "address": "вул. Сїм'ї Сосніних, 17", "network": "АТБ", "lon": 30.392512, "lat": 50.417708 }, "geometry": { "type": "Point", "coordinates": [ 30.392512, 50.417708 ] } },
{ "type": "Feature", "properties": { "address": "вул. Райдужна, 49", "network": "АТБ", "lon": 30.589863, "lat": 50.482693 }, "geometry": { "type": "Point", "coordinates": [ 30.589863, 50.482693 ] } },
{ "type": "Feature", "properties": { "address": "вул. Борщагівська, 154", "network": "АТБ", "lon": 30.443564, "lat": 50.446455 }, "geometry": { "type": "Point", "coordinates": [ 30.443564, 50.446455 ] } },
{ "type": "Feature", "properties": { "address": "вул. Анни Ахматової, 15\/27", "network": "АТБ", "lon": 30.630332, "lat": 50.408392 }, "geometry": { "type": "Point", "coordinates": [ 30.630332, 50.408392 ] } },
{ "type": "Feature", "properties": { "address": "вул. Русанівська Набережна, 18", "network": "АТБ", "lon": 30.591875, "lat": 50.443506 }, "geometry": { "type": "Point", "coordinates": [ 30.591875, 50.443506 ] } },
{ "type": "Feature", "properties": { "address": "вул. Ентузіастів, 7", "network": "АТБ", "lon": 30.601002, "lat": 50.435893 }, "geometry": { "type": "Point", "coordinates": [ 30.601002, 50.435893 ] } },
{ "type": "Feature", "properties": { "address": "вул. Малишка Андрія , 25\/1", "network": "АТБ", "lon": 30.623074, "lat": 50.46073 }, "geometry": { "type": "Point", "coordinates": [ 30.623074, 50.46073 ] } },
{ "type": "Feature", "properties": { "address": "пр. Оболонський, 52 а", "network": "АТБ", "lon": 30.500068, "lat": 50.524882 }, "geometry": { "type": "Point", "coordinates": [ 30.500068, 50.524882 ] } },
{ "type": "Feature", "properties": { "address": "вул. Драгоманова, 1 н", "network": "АТБ", "lon": 30.634968, "lat": 50.420055 }, "geometry": { "type": "Point", "coordinates": [ 30.634968, 50.420055 ] } },
{ "type": "Feature", "properties": { "address": "вул. Вячеслава Чорновала, 12", "network": "АТБ", "lon": 30.484563, "lat": 50.455786 }, "geometry": { "type": "Point", "coordinates": [ 30.484563, 50.455786 ] } },
{ "type": "Feature", "properties": { "address": "бул. Перова, 8", "network": "АТБ", "lon": 30.599008, "lat": 50.469405 }, "geometry": { "type": "Point", "coordinates": [ 30.599008, 50.469405 ] } },
{ "type": "Feature", "properties": { "address": "бул. Кольцова, 1 а", "network": "АТБ", "lon": 30.386898, "lat": 50.416686 }, "geometry": { "type": "Point", "coordinates": [ 30.386898, 50.416686 ] } },
{ "type": "Feature", "properties": { "address": "вул. Павла Тичини, 15", "network": "АТБ", "lon": 30.607355, "lat": 50.4316384 }, "geometry": { "type": "Point", "coordinates": [ 30.607355, 50.4316384 ] } },
{ "type": "Feature", "properties": { "address": "вул. Азербайджанська, 8 б", "network": "АТБ", "lon": 30.641409, "lat": 50.441389 }, "geometry": { "type": "Point", "coordinates": [ 30.641409, 50.441389 ] } },
{ "type": "Feature", "properties": { "address": "пр. Володимира Маяковського, 26", "network": "АТБ", "lon": 30.60924, "lat": 50.507831 }, "geometry": { "type": "Point", "coordinates": [ 30.60924, 50.507831 ] } },
{ "type": "Feature", "properties": { "address": "№1003, вул. Верховинна, 7", "network": "АТБ", "lon": 30.384356, "lat": 50.453229 }, "geometry": { "type": "Point", "coordinates": [ 30.384356, 50.453229 ] } },
{ "type": "Feature", "properties": { "address": "№1008, вул. Алма-Атинська, 2\/1", "network": "АТБ", "lon": 30.649251, "lat": 50.433954 }, "geometry": { "type": "Point", "coordinates": [ 30.649251, 50.433954 ] } },
{ "type": "Feature", "properties": { "address": "вул.Радунська, 30, прим. 276", "network": "АТБ", "lon": 30.599502, "lat": 50.523519 }, "geometry": { "type": "Point", "coordinates": [ 30.599502, 50.523519 ] } },
{ "type": "Feature", "properties": { "address": "№1010, вул.Машинобудівна, 27", "network": "АТБ", "lon": 30.435371, "lat": 50.447281 }, "geometry": { "type": "Point", "coordinates": [ 30.435371, 50.447281 ] } },
{ "type": "Feature", "properties": { "address": "вул. Оноре де Бальзака, 6", "network": "АТБ", "lon": 30.57938, "lat": 50.500561 }, "geometry": { "type": "Point", "coordinates": [ 30.57938, 50.500561 ] } },
{ "type": "Feature", "properties": { "address": "вул. Гришка, 3", "network": "Billa", "lon": 30.632928, "lat": 50.396289 }, "geometry": { "type": "Point", "coordinates": [ 30.632928, 50.396289 ] } },
{ "type": "Feature", "properties": { "address": "вул. Петропавлівська, 2", "network": "Billa", "lon": 30.469992, "lat": 50.487267 }, "geometry": { "type": "Point", "coordinates": [ 30.469992, 50.487267 ] } },
{ "type": "Feature", "properties": { "address": "пр. Маяковського, 85", "network": "Billa", "lon": 30.618043, "lat": 50.522431 }, "geometry": { "type": "Point", "coordinates": [ 30.618043, 50.522431 ] } },
{ "type": "Feature", "properties": { "address": "пл. Бесcарабська, 2", "network": "Billa", "lon": 30.519339, "lat": 50.4423869 }, "geometry": { "type": "Point", "coordinates": [ 30.519339, 50.4423869 ] } },
{ "type": "Feature", "properties": { "address": "вул. Тростянецька, 1А", "network": "Billa", "lon": 30.645765, "lat": 50.414557 }, "geometry": { "type": "Point", "coordinates": [ 30.645765, 50.414557 ] } },
{ "type": "Feature", "properties": { "address": "пр. Повітрофлотський, 56А", "network": "Billa", "lon": 30.454981, "lat": 50.42269 }, "geometry": { "type": "Point", "coordinates": [ 30.454981, 50.42269 ] } },
{ "type": "Feature", "properties": { "address": "пл. Львівська, 8Б", "network": "Billa", "lon": 30.506949, "lat": 50.455557 }, "geometry": { "type": "Point", "coordinates": [ 30.506949, 50.455557 ] } },
{ "type": "Feature", "properties": { "address": "вул. Голосіївська, 13А", "network": "Billa", "lon": 30.519417, "lat": 50.39901 }, "geometry": { "type": "Point", "coordinates": [ 30.519417, 50.39901 ] } },
{ "type": "Feature", "properties": { "address": "вул. А. Малишка, 3", "network": "Billa", "lon": 30.61189, "lat": 50.459078 }, "geometry": { "type": "Point", "coordinates": [ 30.61189, 50.459078 ] } },
{ "type": "Feature", "properties": { "address": "вул. В. Гетьмана, 48А", "network": "Billa", "lon": 30.449142, "lat": 50.437919 }, "geometry": { "type": "Point", "coordinates": [ 30.449142, 50.437919 ] } },
{ "type": "Feature", "properties": { "address": "пл. Майдан Незалежності, ТВК Глобус, 2 лінія, -1 поверх", "network": "Billa", "lon": 30.521046, "lat": 50.4506214 }, "geometry": { "type": "Point", "coordinates": [ 30.521046, 50.4506214 ] } },
{ "type": "Feature", "properties": { "address": "вул. Солом’янська, 16Б", "network": "Billa", "lon": 30.477592, "lat": 50.424205 }, "geometry": { "type": "Point", "coordinates": [ 30.477592, 50.424205 ] } },
{ "type": "Feature", "properties": { "address": "вул. Червоноармійська, 100", "network": "Billa", "lon": 30.515995, "lat": 50.426489 }, "geometry": { "type": "Point", "coordinates": [ 30.515995, 50.426489 ] } },
{ "type": "Feature", "properties": { "address": "вул. Героїв Дніпра, 2А", "network": "Billa", "lon": 30.485138, "lat": 50.517065 }, "geometry": { "type": "Point", "coordinates": [ 30.485138, 50.517065 ] } },
{ "type": "Feature", "properties": { "address": "вул. Чорновола, 27", "network": "Billa", "lon": 30.48503, "lat": 50.453664 }, "geometry": { "type": "Point", "coordinates": [ 30.48503, 50.453664 ] } },
{ "type": "Feature", "properties": { "address": "пр-т. Науки, 5", "network": "Billa", "lon": 30.526415, "lat": 50.403724 }, "geometry": { "type": "Point", "coordinates": [ 30.526415, 50.403724 ] } },
{ "type": "Feature", "properties": { "address": "вул. Липківського, 45", "network": "Billa", "lon": 30.473747, "lat": 50.431384 }, "geometry": { "type": "Point", "coordinates": [ 30.473747, 50.431384 ] } },
{ "type": "Feature", "properties": { "address": "вул. Нижній Вал, 6\/17", "network": "Billa", "lon": 30.507703, "lat": 50.463539 }, "geometry": { "type": "Point", "coordinates": [ 30.507703, 50.463539 ] } },
{ "type": "Feature", "properties": { "address": "вул. А. Ахматової, 49", "network": "Billa", "lon": 30.615088, "lat": 50.404649 }, "geometry": { "type": "Point", "coordinates": [ 30.615088, 50.404649 ] } },
{ "type": "Feature", "properties": { "address": "вул. Драгоманова, 40Д", "network": "Billa", "lon": 30.638606, "lat": 50.40613 }, "geometry": { "type": "Point", "coordinates": [ 30.638606, 50.40613 ] } },
{ "type": "Feature", "properties": { "address": "Ленінградська площа, 1", "network": "Billa", "lon": 30.625805, "lat": 50.441458 }, "geometry": { "type": "Point", "coordinates": [ 30.625805, 50.441458 ] } },
{ "type": "Feature", "properties": { "address": "вул. Будівельників, 40", "network": "Billa", "lon": 30.611037, "lat": 50.454829 }, "geometry": { "type": "Point", "coordinates": [ 30.611037, 50.454829 ] } },
{ "type": "Feature", "properties": { "address": "пл. Майдан Незалежності, ТВК Глобус, ПТП№1, сектор Б", "network": "Billa", "lon": 30.5236215, "lat": 50.4501509 }, "geometry": { "type": "Point", "coordinates": [ 30.5236215, 50.4501509 ] } },
{ "type": "Feature", "properties": { "address": "бульвар Дружби Народів, 16А", "network": "Novus", "lon": 30.538758, "lat": 50.414149 }, "geometry": { "type": "Point", "coordinates": [ 30.538758, 50.414149 ] } },
{ "type": "Feature", "properties": { "address": "вулиця Івашкевича, 5", "network": "Novus", "lon": 30.45685, "lat": 50.505436 }, "geometry": { "type": "Point", "coordinates": [ 30.45685, 50.505436 ] } },
{ "type": "Feature", "properties": { "address": "вулиця Воскресенська, 14А", "network": "Novus", "lon": 30.601775, "lat": 50.468442 }, "geometry": { "type": "Point", "coordinates": [ 30.601775, 50.468442 ] } },
{ "type": "Feature", "properties": { "address": "вулиця Гната Хоткевича, 1А", "network": "Novus", "lon": 30.632282, "lat": 50.458688 }, "geometry": { "type": "Point", "coordinates": [ 30.632282, 50.458688 ] } },
{ "type": "Feature", "properties": { "address": "вулиця Здолбунівська, 7Г", "network": "Novus", "lon": 30.605548, "lat": 50.410659 }, "geometry": { "type": "Point", "coordinates": [ 30.605548, 50.410659 ] } },
{ "type": "Feature", "properties": { "address": "вулиця Львівська, 17", "network": "Novus", "lon": 30.374097, "lat": 50.454226 }, "geometry": { "type": "Point", "coordinates": [ 30.374097, 50.454226 ] } },
{ "type": "Feature", "properties": { "address": "вулиця Михайла Ломоносова, 73А", "network": "Novus", "lon": 30.469983, "lat": 50.386767 }, "geometry": { "type": "Point", "coordinates": [ 30.469983, 50.386767 ] } },
{ "type": "Feature", "properties": { "address": "вулиця Регенераторна, 4А", "network": "Novus", "lon": 30.621744, "lat": 50.438033 }, "geometry": { "type": "Point", "coordinates": [ 30.621744, 50.438033 ] } },
{ "type": "Feature", "properties": { "address": "вулиця Святошинська, 3", "network": "Novus", "lon": 30.388245, "lat": 50.455236 }, "geometry": { "type": "Point", "coordinates": [ 30.388245, 50.455236 ] } },
{ "type": "Feature", "properties": { "address": "вулиця Софії Русової, 1А", "network": "Novus", "lon": 30.625805, "lat": 50.38961 }, "geometry": { "type": "Point", "coordinates": [ 30.625805, 50.38961 ] } },
{ "type": "Feature", "properties": { "address": "Дніпровська Набережна, 17А", "network": "Novus", "lon": 30.610551, "lat": 50.4071 }, "geometry": { "type": "Point", "coordinates": [ 30.610551, 50.4071 ] } },
{ "type": "Feature", "properties": { "address": "Кільцева дорога, 12", "network": "Novus", "lon": 30.398324, "lat": 50.406302 }, "geometry": { "type": "Point", "coordinates": [ 30.398324, 50.406302 ] } },
{ "type": "Feature", "properties": { "address": "площа Гостомельська, 1", "network": "Novus", "lon": 30.366632, "lat": 50.497536 }, "geometry": { "type": "Point", "coordinates": [ 30.366632, 50.497536 ] } },
{ "type": "Feature", "properties": { "address": "проспект Академіка Палладіна, 7А", "network": "Novus", "lon": 30.355268, "lat": 50.462375 }, "geometry": { "type": "Point", "coordinates": [ 30.355268, 50.462375 ] } },
{ "type": "Feature", "properties": { "address": "проспект Бажана Миколи, 8", "network": "Novus", "lon": 30.61154, "lat": 50.393676 }, "geometry": { "type": "Point", "coordinates": [ 30.61154, 50.393676 ] } },
{ "type": "Feature", "properties": { "address": "проспект Броварський, 17", "network": "Novus", "lon": 30.593843, "lat": 50.453068 }, "geometry": { "type": "Point", "coordinates": [ 30.593843, 50.453068 ] } },
{ "type": "Feature", "properties": { "address": "проспект Броварський, 18Д", "network": "Novus", "lon": 30.654973, "lat": 50.466647 }, "geometry": { "type": "Point", "coordinates": [ 30.654973, 50.466647 ] } },
{ "type": "Feature", "properties": { "address": "проспект Валерія Лобановского, 4Д", "network": "Novus", "lon": 30.463955, "lat": 50.422449 }, "geometry": { "type": "Point", "coordinates": [ 30.463955, 50.422449 ] } },
{ "type": "Feature", "properties": { "address": "проспект Оболонський, 1Б", "network": "Novus", "lon": 30.498415, "lat": 50.508971 }, "geometry": { "type": "Point", "coordinates": [ 30.498415, 50.508971 ] } },
{ "type": "Feature", "properties": { "address": "проспект Петра Григоренка, 18", "network": "Novus", "lon": 30.625823, "lat": 50.41074 }, "geometry": { "type": "Point", "coordinates": [ 30.625823, 50.41074 ] } },
{ "type": "Feature", "properties": { "address": "вул. Єреванська, 14", "network": "Екомаркет", "lon": 30.459527, "lat": 50.436025 }, "geometry": { "type": "Point", "coordinates": [ 30.459527, 50.436025 ] } },
{ "type": "Feature", "properties": { "address": "вул. В. Касіяна, 4", "network": "Екомаркет", "lon": 30.455933, "lat": 50.377502 }, "geometry": { "type": "Point", "coordinates": [ 30.455933, 50.377502 ] } },
{ "type": "Feature", "properties": { "address": "вул. В.Гетьмана, 46 Б", "network": "Екомаркет", "lon": 30.446357, "lat": 50.437746 }, "geometry": { "type": "Point", "coordinates": [ 30.446357, 50.437746 ] } },
{ "type": "Feature", "properties": { "address": "вул. Героїв Сталінграду, 14 Г", "network": "Екомаркет", "lon": 30.509917, "lat": 50.5087704 }, "geometry": { "type": "Point", "coordinates": [ 30.509917, 50.5087704 ] } },
{ "type": "Feature", "properties": { "address": "вул. Декабристів, 7", "network": "Екомаркет", "lon": 30.655341, "lat": 50.404643 }, "geometry": { "type": "Point", "coordinates": [ 30.655341, 50.404643 ] } },
{ "type": "Feature", "properties": { "address": "вул. Дорогожицька, 13", "network": "Екомаркет", "lon": 30.445908, "lat": 50.469829 }, "geometry": { "type": "Point", "coordinates": [ 30.445908, 50.469829 ] } },
{ "type": "Feature", "properties": { "address": "вул. Ернста, 14 А", "network": "Екомаркет", "lon": 30.46427, "lat": 50.417197 }, "geometry": { "type": "Point", "coordinates": [ 30.46427, 50.417197 ] } },
{ "type": "Feature", "properties": { "address": "вул. Жилянська, 107", "network": "Екомаркет", "lon": 30.49271, "lat": 50.444636 }, "geometry": { "type": "Point", "coordinates": [ 30.49271, 50.444636 ] } },
{ "type": "Feature", "properties": { "address": "вул. Закревського, 12", "network": "Екомаркет", "lon": 30.610524, "lat": 50.500051 }, "geometry": { "type": "Point", "coordinates": [ 30.610524, 50.500051 ] } },
{ "type": "Feature", "properties": { "address": "вул. Зої Гайдай, 2", "network": "Екомаркет", "lon": 30.493142, "lat": 50.514481 }, "geometry": { "type": "Point", "coordinates": [ 30.493142, 50.514481 ] } },
{ "type": "Feature", "properties": { "address": "вул. Кіквідзе, 1\/2", "network": "Екомаркет", "lon": 30.549412, "lat": 50.417949 }, "geometry": { "type": "Point", "coordinates": [ 30.549412, 50.417949 ] } },
{ "type": "Feature", "properties": { "address": "вул. Кибальчича, 13", "network": "Екомаркет", "lon": 30.601065, "lat": 50.491926 }, "geometry": { "type": "Point", "coordinates": [ 30.601065, 50.491926 ] } },
{ "type": "Feature", "properties": { "address": "вул. Краківська, 18 А", "network": "Екомаркет", "lon": 30.624368, "lat": 50.454903 }, "geometry": { "type": "Point", "coordinates": [ 30.624368, 50.454903 ] } },
{ "type": "Feature", "properties": { "address": "вул. Крупської, 4", "network": "Екомаркет", "lon": 30.647275, "lat": 50.4291 }, "geometry": { "type": "Point", "coordinates": [ 30.647275, 50.4291 ] } },
{ "type": "Feature", "properties": { "address": "вул. Лебедєва-Кумача, 7", "network": "Екомаркет", "lon": 30.439773, "lat": 50.438705 }, "geometry": { "type": "Point", "coordinates": [ 30.439773, 50.438705 ] } },
{ "type": "Feature", "properties": { "address": "вул. Лукашевича, 15 А", "network": "Екомаркет", "lon": 30.483422, "lat": 50.439835 }, "geometry": { "type": "Point", "coordinates": [ 30.483422, 50.439835 ] } },
{ "type": "Feature", "properties": { "address": "вул. Маршала Тимошенка, 13\/1", "network": "Екомаркет", "lon": 30.491561, "lat": 50.510718 }, "geometry": { "type": "Point", "coordinates": [ 30.491561, 50.510718 ] } },
{ "type": "Feature", "properties": { "address": "вул. Межигірська, 55\/20", "network": "Екомаркет", "lon": 30.506949, "lat": 50.471882 }, "geometry": { "type": "Point", "coordinates": [ 30.506949, 50.471882 ] } },
{ "type": "Feature", "properties": { "address": "вул. О. Пчілки, 2 А", "network": "Екомаркет", "lon": 30.624969, "lat": 50.416618 }, "geometry": { "type": "Point", "coordinates": [ 30.624969, 50.416618 ] } },
{ "type": "Feature", "properties": { "address": "вул. О. Теліги, 15", "network": "Екомаркет", "lon": 30.446582, "lat": 50.471847 }, "geometry": { "type": "Point", "coordinates": [ 30.446582, 50.471847 ] } },
{ "type": "Feature", "properties": { "address": "вул. Ольжича, 14", "network": "Екомаркет", "lon": 30.446708, "lat": 50.479311 }, "geometry": { "type": "Point", "coordinates": [ 30.446708, 50.479311 ] } },
{ "type": "Feature", "properties": { "address": "вул. Отто Шмідта, 31", "network": "Екомаркет", "lon": 30.486009, "lat": 50.469657 }, "geometry": { "type": "Point", "coordinates": [ 30.486009, 50.469657 ] } },
{ "type": "Feature", "properties": { "address": "вул. Потєхіна, 12", "network": "Екомаркет", "lon": 30.489926, "lat": 50.382086 }, "geometry": { "type": "Point", "coordinates": [ 30.489926, 50.382086 ] } },
{ "type": "Feature", "properties": { "address": "вул. Приозерна, 14", "network": "Екомаркет", "lon": 30.507802, "lat": 50.490699 }, "geometry": { "type": "Point", "coordinates": [ 30.507802, 50.490699 ] } },
{ "type": "Feature", "properties": { "address": "вул. Радунська, 40", "network": "Екомаркет", "lon": 30.603311, "lat": 50.528873 }, "geometry": { "type": "Point", "coordinates": [ 30.603311, 50.528873 ] } },
{ "type": "Feature", "properties": { "address": "вул. Серафимовича, 11", "network": "Екомаркет", "lon": 30.601434, "lat": 50.432864 }, "geometry": { "type": "Point", "coordinates": [ 30.601434, 50.432864 ] } },
{ "type": "Feature", "properties": { "address": "вул. Сиваська, 1 А", "network": "Екомаркет", "lon": 30.646286, "lat": 50.434069 }, "geometry": { "type": "Point", "coordinates": [ 30.646286, 50.434069 ] } },
{ "type": "Feature", "properties": { "address": "вул. Тулузи, 14 А", "network": "Екомаркет", "lon": 30.372767, "lat": 50.43147 }, "geometry": { "type": "Point", "coordinates": [ 30.372767, 50.43147 ] } },
{ "type": "Feature", "properties": { "address": "вул. Урицького, 25", "network": "Екомаркет", "lon": 30.482272, "lat": 50.432766 }, "geometry": { "type": "Point", "coordinates": [ 30.482272, 50.432766 ] } },
{ "type": "Feature", "properties": { "address": "вул. Щорса, 15 (корпус 2)", "network": "Екомаркет", "lon": 30.525104, "lat": 50.425433 }, "geometry": { "type": "Point", "coordinates": [ 30.525104, 50.425433 ] } },
{ "type": "Feature", "properties": { "address": "Дніпровська набережна, 3", "network": "Екомаркет", "lon": 30.593178, "lat": 50.426931 }, "geometry": { "type": "Point", "coordinates": [ 30.593178, 50.426931 ] } },
{ "type": "Feature", "properties": { "address": "Лебедєва-Кумача, 2-б", "network": "Екомаркет", "lon": 30.441417, "lat": 50.440294 }, "geometry": { "type": "Point", "coordinates": [ 30.441417, 50.440294 ] } },
{ "type": "Feature", "properties": { "address": "пл. Вокзальна, 1", "network": "Екомаркет", "lon": 30.489396, "lat": 50.440403 }, "geometry": { "type": "Point", "coordinates": [ 30.489396, 50.440403 ] } },
{ "type": "Feature", "properties": { "address": "пр. Георгія Гонгадзе, 20", "network": "Екомаркет", "lon": 30.412356, "lat": 50.512207 }, "geometry": { "type": "Point", "coordinates": [ 30.412356, 50.512207 ] } },
{ "type": "Feature", "properties": { "address": "пр. Маяковського, 17", "network": "Екомаркет", "lon": 30.591723, "lat": 50.502589 }, "geometry": { "type": "Point", "coordinates": [ 30.591723, 50.502589 ] } },
{ "type": "Feature", "properties": { "address": "пр. Маяковського, 26", "network": "Екомаркет", "lon": 30.60924, "lat": 50.507831 }, "geometry": { "type": "Point", "coordinates": [ 30.60924, 50.507831 ] } },
{ "type": "Feature", "properties": { "address": "пр. Науки, 8", "network": "Екомаркет", "lon": 30.523586, "lat": 50.404092 }, "geometry": { "type": "Point", "coordinates": [ 30.523586, 50.404092 ] } },
{ "type": "Feature", "properties": { "address": "пр. Оболонський, 29", "network": "Екомаркет", "lon": 30.49784, "lat": 50.516326 }, "geometry": { "type": "Point", "coordinates": [ 30.49784, 50.516326 ] } },
{ "type": "Feature", "properties": { "address": "пр. Перемоги, 60", "network": "Екомаркет", "lon": 30.435039, "lat": 50.457123 }, "geometry": { "type": "Point", "coordinates": [ 30.435039, 50.457123 ] } },
{ "type": "Feature", "properties": { "address": "пр. Повітрофлотський, 19 А", "network": "Екомаркет", "lon": 30.475391, "lat": 50.437213 }, "geometry": { "type": "Point", "coordinates": [ 30.475391, 50.437213 ] } },
{ "type": "Feature", "properties": { "address": "пров. Чугуївський, 19 А", "network": "Екомаркет", "lon": 30.423576, "lat": 50.453527 }, "geometry": { "type": "Point", "coordinates": [ 30.423576, 50.453527 ] } },
{ "type": "Feature", "properties": { "address": "пр-т. Повітрофлотський, 66", "network": "Фуршет", "lon": 30.452412, "lat": 50.419619 }, "geometry": { "type": "Point", "coordinates": [ 30.452412, 50.419619 ] } },
{ "type": "Feature", "properties": { "address": "бульвар Лесі Українки, 5", "network": "Фуршет", "lon": 30.530116, "lat": 50.435234 }, "geometry": { "type": "Point", "coordinates": [ 30.530116, 50.435234 ] } },
{ "type": "Feature", "properties": { "address": "вул. Біломорська (ЦТ \"Даринок\")", "network": "Фуршет", "lon": 30.640499, "lat": 50.4607304 }, "geometry": { "type": "Point", "coordinates": [ 30.640499, 50.4607304 ] } },
{ "type": "Feature", "properties": { "address": "вул. В. Сосюри, 6", "network": "Фуршет", "lon": 30.632515, "lat": 50.442376 }, "geometry": { "type": "Point", "coordinates": [ 30.632515, 50.442376 ] } },
{ "type": "Feature", "properties": { "address": "вул. Старовокзальна, 23", "network": "Фуршет", "lon": 30.489746, "lat": 50.443604 }, "geometry": { "type": "Point", "coordinates": [ 30.489746, 50.443604 ] } },
{ "type": "Feature", "properties": { "address": "Русанівська набережна, 4", "network": "Фуршет", "lon": 30.593124, "lat": 50.434746 }, "geometry": { "type": "Point", "coordinates": [ 30.593124, 50.434746 ] } },
{ "type": "Feature", "properties": { "address": "вул. Райдужна, 15", "network": "Фуршет", "lon": 30.585156, "lat": 50.48667 }, "geometry": { "type": "Point", "coordinates": [ 30.585156, 50.48667 ] } },
{ "type": "Feature", "properties": { "address": "вул. Луначарського, 22", "network": "Фуршет", "lon": 30.593906, "lat": 50.456262 }, "geometry": { "type": "Point", "coordinates": [ 30.593906, 50.456262 ] } },
{ "type": "Feature", "properties": { "address": "вул. Кибальчича, 11 а", "network": "Фуршет", "lon": 30.599978, "lat": 50.492539 }, "geometry": { "type": "Point", "coordinates": [ 30.599978, 50.492539 ] } },
{ "type": "Feature", "properties": { "address": "вул. Інженерна, 1", "network": "Фуршет", "lon": 30.564324, "lat": 50.401198 }, "geometry": { "type": "Point", "coordinates": [ 30.564324, 50.401198 ] } },
{ "type": "Feature", "properties": { "address": "вул. Горького, 165", "network": "Фуршет", "lon": 30.522552, "lat": 50.415521 }, "geometry": { "type": "Point", "coordinates": [ 30.522552, 50.415521 ] } },
{ "type": "Feature", "properties": { "address": "вул. Героїв Космосу, 4", "network": "Фуршет", "lon": 30.389907, "lat": 50.435859 }, "geometry": { "type": "Point", "coordinates": [ 30.389907, 50.435859 ] } },
{ "type": "Feature", "properties": { "address": "вул. Вишгородська, 21", "network": "Фуршет", "lon": 30.451208, "lat": 50.500859 }, "geometry": { "type": "Point", "coordinates": [ 30.451208, 50.500859 ] } },
{ "type": "Feature", "properties": { "address": "вул. Вершигори, 1", "network": "Фуршет", "lon": 30.576398, "lat": 50.493335 }, "geometry": { "type": "Point", "coordinates": [ 30.576398, 50.493335 ] } },
{ "type": "Feature", "properties": { "address": "вул. Вереснева, 3", "network": "Фуршет", "lon": 30.664235, "lat": 50.430735 }, "geometry": { "type": "Point", "coordinates": [ 30.664235, 50.430735 ] } },
{ "type": "Feature", "properties": { "address": "вул. Вербицького, 30", "network": "Фуршет", "lon": 30.666121, "lat": 50.407244 }, "geometry": { "type": "Point", "coordinates": [ 30.666121, 50.407244 ] } },
{ "type": "Feature", "properties": { "address": "вул. Братиславська, 14 б", "network": "Фуршет", "lon": 30.629686, "lat": 50.467473 }, "geometry": { "type": "Point", "coordinates": [ 30.629686, 50.467473 ] } },
{ "type": "Feature", "properties": { "address": "вул. Багговутівська, 17-21", "network": "Фуршет", "lon": 30.475876, "lat": 50.471073 }, "geometry": { "type": "Point", "coordinates": [ 30.475876, 50.471073 ] } },
{ "type": "Feature", "properties": { "address": "вул. Ярославська, 56 а", "network": "Фуршет", "lon": 30.51807, "lat": 50.471744 }, "geometry": { "type": "Point", "coordinates": [ 30.51807, 50.471744 ] } },
{ "type": "Feature", "properties": { "address": "пр-т Перемоги, 94\/1", "network": "Фуршет", "lon": 30.398828, "lat": 50.459049 }, "geometry": { "type": "Point", "coordinates": [ 30.398828, 50.459049 ] } },
{ "type": "Feature", "properties": { "address": "пр. 40-річчя Жовтня, 58а, ЖК \"Парк Авеню\".", "network": "Велика Кишеня", "lon": 30.512402, "lat": 50.400647 }, "geometry": { "type": "Point", "coordinates": [ 30.512402, 50.400647 ] } },
{ "type": "Feature", "properties": { "address": "вул. Бориспільська, 9", "network": "Велика Кишеня", "lon": 30.6641463, "lat": 50.4305424 }, "geometry": { "type": "Point", "coordinates": [ 30.6641463, 50.4305424 ] } },
{ "type": "Feature", "properties": { "address": "вул. Васильківська, 8", "network": "Велика Кишеня", "lon": 30.503472, "lat": 50.396381 }, "geometry": { "type": "Point", "coordinates": [ 30.503472, 50.396381 ] } },
{ "type": "Feature", "properties": { "address": "вул. Вербицького, 18", "network": "Велика Кишеня", "lon": 30.655108, "lat": 50.408363 }, "geometry": { "type": "Point", "coordinates": [ 30.655108, 50.408363 ] } },
{ "type": "Feature", "properties": { "address": "вул. Вишняківська, 10", "network": "Велика Кишеня", "lon": 30.6460316, "lat": 50.3960045 }, "geometry": { "type": "Point", "coordinates": [ 30.6460316, 50.3960045 ] } },
{ "type": "Feature", "properties": { "address": "пр. Возз'єднання, 2\/1а (пр. Миру, 1), ТЦ \"Дарниця\"", "network": "Велика Кишеня", "lon": 30.624341, "lat": 50.442468 }, "geometry": { "type": "Point", "coordinates": [ 30.624341, 50.442468 ] } },
{ "type": "Feature", "properties": { "address": "вул. Героїв Дніпра, 31", "network": "Велика Кишеня", "lon": 30.49307, "lat": 50.522609 }, "geometry": { "type": "Point", "coordinates": [ 30.49307, 50.522609 ] } },
{ "type": "Feature", "properties": { "address": "вул. Глушкова, 36", "network": "Велика Кишеня", "lon": 30.447687, "lat": 50.364391 }, "geometry": { "type": "Point", "coordinates": [ 30.447687, 50.364391 ] } },
{ "type": "Feature", "properties": { "address": "пр. Григоренка, 26", "network": "Велика Кишеня", "lon": 30.62832, "lat": 50.406566 }, "geometry": { "type": "Point", "coordinates": [ 30.62832, 50.406566 ] } },
{ "type": "Feature", "properties": { "address": "пл. Дружби Народів, 6", "network": "Велика Кишеня", "lon": 30.497811, "lat": 50.4998369 }, "geometry": { "type": "Point", "coordinates": [ 30.497811, 50.4998369 ] } },
{ "type": "Feature", "properties": { "address": "Залізничне шосе, 57", "network": "Велика Кишеня", "lon": 30.549709, "lat": 50.404471 }, "geometry": { "type": "Point", "coordinates": [ 30.549709, 50.404471 ] } },
{ "type": "Feature", "properties": { "address": "вул. Івашкевича, 6\/8а", "network": "Велика Кишеня", "lon": 30.453409, "lat": 50.505196 }, "geometry": { "type": "Point", "coordinates": [ 30.453409, 50.505196 ] } },
{ "type": "Feature", "properties": { "address": "вул. Кудряшова, 1", "network": "Велика Кишеня", "lon": 30.492001, "lat": 50.435819 }, "geometry": { "type": "Point", "coordinates": [ 30.492001, 50.435819 ] } },
{ "type": "Feature", "properties": { "address": "пр. Леся Курбаса, 6г біля \"ТЦ \"Квадрат\"", "network": "Велика Кишеня", "lon": 30.383448, "lat": 50.430408 }, "geometry": { "type": "Point", "coordinates": [ 30.383448, 50.430408 ] } },
{ "type": "Feature", "properties": { "address": "вул. Лятошинського, 14", "network": "Велика Кишеня", "lon": 30.44943, "lat": 50.378197 }, "geometry": { "type": "Point", "coordinates": [ 30.44943, 50.378197 ] } },
{ "type": "Feature", "properties": { "address": "пл. Печерська, 1", "network": "Велика Кишеня", "lon": 30.541336, "lat": 50.432732 }, "geometry": { "type": "Point", "coordinates": [ 30.541336, 50.432732 ] } },
{ "type": "Feature", "properties": { "address": "пл. Перемоги, 3, універмаг \"Україна\"", "network": "Велика Кишеня", "lon": 30.49183, "lat": 50.4463 }, "geometry": { "type": "Point", "coordinates": [ 30.49183, 50.4463 ] } },
{ "type": "Feature", "properties": { "address": "вул. Руденко, 9а", "network": "Велика Кишеня", "lon": 30.643726, "lat": 50.39711 }, "geometry": { "type": "Point", "coordinates": [ 30.643726, 50.39711 ] } },
{ "type": "Feature", "properties": { "address": "вул. Саперно-Слобідська, 10", "network": "Велика Кишеня", "lon": 30.531221, "lat": 50.403885 }, "geometry": { "type": "Point", "coordinates": [ 30.531221, 50.403885 ] } },
{ "type": "Feature", "properties": { "address": "Харьківське шосе, 19, ТРК \"Мега-сіті\"", "network": "Велика Кишеня", "lon": 30.63442, "lat": 50.431768 }, "geometry": { "type": "Point", "coordinates": [ 30.63442, 50.431768 ] } },
{ "type": "Feature", "properties": { "address": "вул. Чорнобильська, 16\/80", "network": "Велика Кишеня", "lon": 30.34695, "lat": 50.46069 }, "geometry": { "type": "Point", "coordinates": [ 30.34695, 50.46069 ] } },
{ "type": "Feature", "properties": { "address": "вул. Горького, 50", "network": "Мегамаркет", "lon": 30.513165, "lat": 50.432353 }, "geometry": { "type": "Point", "coordinates": [ 30.513165, 50.432353 ] } },
{ "type": "Feature", "properties": { "address": "пр-кт. Московський, 6", "network": "Мегамаркет", "lon": 30.4943, "lat": 50.487696 }, "geometry": { "type": "Point", "coordinates": [ 30.4943, 50.487696 ] } },
{ "type": "Feature", "properties": { "address": "вул. Сурікова, 3", "network": "Мегамаркет", "lon": 30.385973, "lat": 50.462633 }, "geometry": { "type": "Point", "coordinates": [ 30.385973, 50.462633 ] } },
{ "type": "Feature", "properties": { "address": "вул. Гетьмана, 6", "network": "Мегамаркет", "lon": 30.443312, "lat": 50.449965 }, "geometry": { "type": "Point", "coordinates": [ 30.443312, 50.449965 ] } },
{ "type": "Feature", "properties": { "address": "Дніпропетровське шосе - 1, буд.16", "network": "Мегамаркет", "lon": 30.5343331, "lat": 50.2713501 }, "geometry": { "type": "Point", "coordinates": [ 30.5343331, 50.2713501 ] } }
]
}
